"자치구","안심 주소","CCTV 용도","위도","경도","CCTV 수량","수정 일시"
"용산구","064.자치07-52(00) (효창동 3-263 용산장애인복지관 옆)","064.자치07-52(00) (효창동 3-263 용산장애인복지관 옆)","37.5475","126.9618","1","2022-12-01"
"용산구","065.교지07-53(00) (효창동 3-349 청파초 정문 맞은편)","065.교지07-53(00) (효창동 3-349 청파초 정문 맞은편)","37.5478","126.9633","1","2022-12-01"
"용산구","공원01-13(00) (후암로13가길 25 새나라공원)","공원01-13(00) (후암로13가길 25 새나라공원)","37.5482","126.9763","1","2022-12-01"
"용산구","공원01-14(00) (후암로13가길 25 새나라공원)","공원01-14(00) (후암로13가길 25 새나라공원)","37.5481","126.9765","1","2022-12-01"
"용산구","공원02-17(00) 19-1차(용산동2가 1-1923 후암동 외국인학교 옆 공원)","공원02-17(00) 19-1차(용산동2가 1-1923 후암동 외국인학교 옆 공원)","37.5450","126.9844","1","2022-12-01"
"용산구","공원02-17(A1) (신흥로 100-5 옆)","공원02-17(A1) (신흥로 100-5 옆)","37.5453","126.9844","1","2022-12-01"
"용산구","공원02-18(00) (용산동2가 5-1717 소월길 주민쉼터)","공원02-18(00) (용산동2가 5-1717 소월길 주민쉼터)","37.5457","126.9879","1","2022-12-01"
"용산구","공원03-13(00) 19-1차(동자동 8-3 새꿈어린이공원 하단부)","공원03-13(00) 19-1차(동자동 8-3 새꿈어린이공원 하단부)","37.5524","126.9742","1","2022-12-01"
"용산구","공원03-14(00) 19-1차(동자동 19-14 새꿈어린이공원 상단부)","공원03-14(00) 19-1차(동자동 19-14 새꿈어린이공원 상단부)","37.5523","126.9744","1","2022-12-01"
"용산구","공원03-15(00) 20-2차(동자동 18-21 센트리빌아파트 공원내(두텁바위어린이공원))","공원03-15(00) 20-2차(동자동 18-21 센트리빌아파트 공원내(두텁바위어린이공원))","37.5519","126.9736","1","2022-12-01"
"용산구","공원03-16(00) 20-2차(동자동 18-58 센트리빌아파트 공원내(두텁바위어린이공원))","공원03-16(00) 20-2차(동자동 18-58 센트리빌아파트 공원내(두텁바위어린이공원))","37.5520","126.9732","1","2022-12-01"
"용산구","공원03-17(00) 20-2차(동자동 50 센트리빌아파트 공원내(두텁바위어린이공원))","공원03-17(00) 20-2차(동자동 50 센트리빌아파트 공원내(두텁바위어린이공원))","37.5520","126.9728","1","2022-12-01"
"용산구","공원03-22(00) (동자동 24-11 (한강대로104길 30-4))","공원03-22(00) (동자동 24-11 (한강대로104길 30-4))","37.5501","126.9739","1","2022-12-01"
"용산구","공원04-34(00) 20-2차(청파 어린이공원안)","공원04-34(00) 20-2차(청파 어린이공원안)","37.5536","126.9680","1","2022-12-01"
"용산구","공원04-35(00) 20-2차(청파 어린이공원안)","공원04-35(00) 20-2차(청파 어린이공원안)","37.5536","126.9680","1","2022-12-01"
"용산구","공원04-36(00) 20-2차(청파 어린이공원안)","공원04-36(00) 20-2차(청파 어린이공원안)","37.5538","126.9677","1","2022-12-01"
"용산구","공원04-42(00) (청파동3가 118-30 선린공원게이트볼장)","공원04-42(00) (청파동3가 118-30 선린공원게이트볼장)","37.5436","126.9661","1","2022-12-01"
"용산구","공원04-49(00) (청파동 119-12 돌모루 어린이 공원입구)","공원04-49(00) (청파동 119-12 돌모루 어린이 공원입구)","37.5428","126.9683","1","2022-12-01"
"용산구","공원04-50(00) (청파동 119-4 돌모루 어린이 공원내)","공원04-50(00) (청파동 119-4 돌모루 어린이 공원내)","37.5429","126.9687","1","2022-12-01"
"용산구","공원04-52(00) (서계동 276-7 서계가로공원)","공원04-52(00) (서계동 276-7 서계가로공원)","37.5513","126.9642","1","2022-12-01"
"용산구","공원04-52(A1) (만리재로24가길 11)","공원04-52(A1) (만리재로24가길 11)","37.5513","126.9645","1","2022-12-01"
"용산구","공원05-19(00) 20-2차(원효로1가 119-2 해님공원내 더프라임아파트 입구 공원등)","공원05-19(00) 20-2차(원효로1가 119-2 해님공원내 더프라임아파트 입구 공원등)","37.5393","126.9701","1","2022-12-01"
"용산구","공원05-20(00) 20-2차(원효로1가 119-2 해님공원내 쉼터 옆)","공원05-20(00) 20-2차(원효로1가 119-2 해님공원내 쉼터 옆)","37.5393","126.9699","1","2022-12-01"
"용산구","공원05-21(00) 20-2차(원효로1가 119-2 해님공원내 도로 입구)","공원05-21(00) 20-2차(원효로1가 119-2 해님공원내 도로 입구)","37.5392","126.9702","1","2022-12-01"
"용산구","공원05-22(00) 20-2차(원효로1가 119-2 해님공원내 이안아파트 출입구)","공원05-22(00) 20-2차(원효로1가 119-2 해님공원내 이안아파트 출입구)","37.5390","126.9702","1","2022-12-01"
"용산구","공원05-23(00) 20-2차(문배동 7-32 달님공원내 입구 공원등3)","공원05-23(00) 20-2차(문배동 7-32 달님공원내 입구 공원등3)","37.5385","126.9696","1","2022-12-01"
"용산구","공원05-24(00) 20-2차(문배동 7-32 달님공원내 쉼터 옆 공원등2)","공원05-24(00) 20-2차(문배동 7-32 달님공원내 쉼터 옆 공원등2)","37.5384","126.9695","1","2022-12-01"
"용산구","공원05-25(00) 20-2차(문배동 7-32 달님공원내 이안아파트 출입구 공원등1)","공원05-25(00) 20-2차(문배동 7-32 달님공원내 이안아파트 출입구 공원등1)","37.5383","126.9698","1","2022-12-01"
"용산구","공원05-26(00) (KCC(달님공원))","공원05-26(00) (KCC(달님공원))","37.5383","126.9695","1","2022-12-01"
"용산구","공원05-27(00) (KCC(달님공원))","공원05-27(00) (KCC(달님공원))","37.5383","126.9695","1","2022-12-01"
"용산구","공원05-28(1) 21-1차(신계동55 신계역사공원)","공원05-28(1) 21-1차(신계동55 신계역사공원)","37.5351","126.9664","1","2022-12-01"
"용산구","공원05-28(2) 21-1차(신계동55 신계역사공원)","공원05-28(2) 21-1차(신계동55 신계역사공원)","37.5353","126.9660","1","2022-12-01"
"용산구","공원05-28(3) 21-1차(신계동55 신계역사공원)","공원05-28(3) 21-1차(신계동55 신계역사공원)","37.5356","126.9660","1","2022-12-01"
"용산구","공원05-28(4) 21-1차(신계동55 신계역사공원)","공원05-28(4) 21-1차(신계동55 신계역사공원)","37.5358","126.9664","1","2022-12-01"
"용산구","공원05-28(5) 21-1차(신계동55 신계역사공원)","공원05-28(5) 21-1차(신계동55 신계역사공원)","37.5356","126.9671","1","2022-12-01"
"용산구","공원05-28(6) 21-1차(신계동55 신계역사공원)","공원05-28(6) 21-1차(신계동55 신계역사공원)","37.5351","126.9671","1","2022-12-01"
"용산구","공원05-28(7) (신계동55 신계역사공원)","공원05-28(7) (신계동55 신계역사공원)","37.5351","126.9664","1","2022-12-01"
"용산구","공원05-32(00) (문배동 24-1 문배어린이공원)","공원05-32(00) (문배동 24-1 문배어린이공원)","37.5367","126.9698","1","2022-12-01"
"용산구","공원06-09(00) 19-1차(원효로4가 87-2 문화원정자마당)","공원06-09(00) 19-1차(원효로4가 87-2 문화원정자마당)","37.5336","126.9519","1","2022-12-01"
"용산구","공원06-24(00) (원효로3가 1-139 원효어린이집 앞 늘푸른공원 내)","공원06-24(00) (원효로3가 1-139 원효어린이집 앞 늘푸른공원 내)","37.5348","126.9567","1","2022-12-01"
"용산구","공원06-32(00) 20-2차(산천동 30-3 산천동가로쉼터)","공원06-32(00) 20-2차(산천동 30-3 산천동가로쉼터)","37.5351","126.9530","1","2022-12-01"
"용산구","공원07-46(10) (롯데캐슬아파트 소공원)","공원07-46(10) (롯데캐슬아파트 소공원)","37.5405","126.9643","1","2022-12-01"
"용산구","공원07-46(50) (롯데캐슬아파트 대공원)","공원07-46(50) (롯데캐슬아파트 대공원)","37.5392","126.9627","1","2022-12-01"
"용산구","공원08-33(00) (도원동21 도원어린이공원)","공원08-33(00) (도원동21 도원어린이공원)","37.5371","126.9544","1","2022-12-01"
"용산구","공원08-35(00) 20-2차(도원동 21 도원어린이공원 놀이터)","공원08-35(00) 20-2차(도원동 21 도원어린이공원 놀이터)","37.5373","126.9548","1","2022-12-01"
"용산구","공원09-38(00) (용산동3가 1-96 삼각지 어린이공원내)","공원09-38(00) (용산동3가 1-96 삼각지 어린이공원내)","37.5344","126.9754","1","2022-12-01"
"용산구","공원09-40(00) 가(LG U+ 사옥 옆 공원)","공원09-40(00) 가(LG U+ 사옥 옆 공원)","37.5242","126.9635","1","2022-12-01"
"용산구","공원09-41(00) (LG U+ 사옥 옆 공원)","공원09-41(00) (LG U+ 사옥 옆 공원)","37.5242","126.9635","1","2022-12-01"
"용산구","공원09-44(10) (아모레퍼시픽옆 어린이공원)","공원09-44(10) (아모레퍼시픽옆 어린이공원)","37.5284","126.9694","1","2022-12-01"
"용산구","공원09-44(20) (아모레퍼시픽옆 어린이공원)","공원09-44(20) (아모레퍼시픽옆 어린이공원)","37.5287","126.9697","1","2022-12-01"
"용산구","공원09-44(30) (아모레퍼시픽옆 어린이공원)","공원09-44(30) (아모레퍼시픽옆 어린이공원)","37.5284","126.9696","1","2022-12-01"
"용산구","공원09-44(40) (아모레퍼시픽옆 어린이공원)","공원09-44(40) (아모레퍼시픽옆 어린이공원)","37.5283","126.9698","1","2022-12-01"
"용산구","공원09-49(00)(한강로3가 65-325 용산무역센터 내 공원)","공원09-49(00)(한강로3가 65-325 용산무역센터 내 공원)","37.5243","126.9637","1","2022-12-01"
"용산구","공원10-43(10) ((이촌동)삼성렉스아파트)","공원10-43(10) ((이촌동)삼성렉스아파트)","37.5174","126.9814","1","2022-12-01"
"용산구","공원10-43(20) ((이촌동)삼성렉스아파트)","공원10-43(20) ((이촌동)삼성렉스아파트)","37.5174","126.9814","1","2022-12-01"
"용산구","공원10-43(30) ((이촌동)삼성렉스아파트)","공원10-43(30) ((이촌동)삼성렉스아파트)","37.5174","126.9814","1","2022-12-01"
"용산구","공원10-43(40) ((이촌동)삼성렉스아파트)","공원10-43(40) ((이촌동)삼성렉스아파트)","37.5174","126.9814","1","2022-12-01"
"용산구","공원10-44(00) (이촌동 408 강변공원)","공원10-44(00) (이촌동 408 강변공원)","37.5215","126.9752","1","2022-12-01"
"용산구","공원10-46(00) (이촌동 429 사촌소공원)","공원10-46(00) (이촌동 429 사촌소공원)","37.5207","126.9706","1","2022-12-01"
"용산구","공원10-49(00) 20-2차(이촌동 425 청탑소공원)","공원10-49(00) 20-2차(이촌동 425 청탑소공원)","37.5177","126.9776","1","2022-12-01"
"용산구","공원11-17(00) (이촌동 206-1 새싹 어린이집 앞 공원)","공원11-17(00) (이촌동 206-1 새싹 어린이집 앞 공원)","37.5269","126.9545","1","2022-12-01"
"용산구","공원11-20(00) 20-2차(이촌동191 한강대교 주민쉼터)","공원11-20(00) 20-2차(이촌동191 한강대교 주민쉼터)","37.5227","126.9613","1","2022-12-01"
"용산구","공원13-05(B1) (이태원동 286-1 이태원어린이공원)","공원13-05(B1) (이태원동 286-1 이태원어린이공원)","37.5383","126.9895","1","2022-12-01"
"용산구","공원13-09(00) 20-2차(이태원동 258-467 라틴아메리카공원)","공원13-09(00) 20-2차(이태원동 258-467 라틴아메리카공원)","37.5407","126.9971","1","2022-12-01"
"용산구","공원13-21(00) 20-2차(이태원2동 463 소월길 어린이공원내)","공원13-21(00) 20-2차(이태원2동 463 소월길 어린이공원내)","37.5435","126.9894","1","2022-12-01"
"용산구","공원13-22(00) 20-2차(성남공원내부)","공원13-22(00) 20-2차(성남공원내부)","37.5437","126.9894","1","2022-12-01"
"용산구","공원13-32(00) (이태원동 191-3 이태원부군당역사공원내)","공원13-32(00) (이태원동 191-3 이태원부군당역사공원내)","37.5360","126.9897","1","2022-12-01"
"용산구","공원13-35(00) (이태원동 260-87 이태원마을숲소공원)","공원13-35(00) (이태원동 260-87 이태원마을숲소공원)","37.5413","126.9916","1","2022-12-01"
"용산구","공원13-36(00) (이태원동 286-1 이태원어린이공원)","공원13-36(00) (이태원동 286-1 이태원어린이공원)","37.5381","126.9892","1","2022-12-01"
"용산구","공원13-36(A1) (이태원동 290-2 이태원어린이공원 내 곰돌이 뒤)","공원13-36(A1) (이태원동 290-2 이태원어린이공원 내 곰돌이 뒤)","37.5382","126.9891","1","2022-12-01"
"용산구","공원14-29(00) (한남동 738-9 어린이놀이터)","공원14-29(00) (한남동 738-9 어린이놀이터)","37.5366","126.9995","1","2022-12-01"
"용산구","공원14-30(00) (한남동 738-9 어린이놀이터)","공원14-30(00) (한남동 738-9 어린이놀이터)","37.5366","126.9996","1","2022-12-01"
"용산구","공원14-52(00) (응봉근린공원매봉놀이마당)","공원14-52(00) (응봉근린공원매봉놀이마당)","37.5437","127.0044","1","2022-12-01"
"용산구","공원14-53(00) 19-1차(응봉근린공원한남테니스장)","공원14-53(00) 19-1차(응봉근린공원한남테니스장)","37.5440","127.0047","1","2022-12-01"
"용산구","공원14-55(00) 19-1차(한남동 산 8-1 응봉공원내)","공원14-55(00) 19-1차(한남동 산 8-1 응봉공원내)","37.5466","127.0045","1","2022-12-01"
"용산구","공원14-62(00) (한남동 산8-1 응봉공원)","공원14-62(00) (한남동 산8-1 응봉공원)","37.5453","127.0041","1","2022-12-01"
"용산구","공원14-63(00) (한남동 산8-1 응봉공원)","공원14-63(00) (한남동 산8-1 응봉공원)","37.5458","127.0042","1","2022-12-01"
"용산구","공원14-79(00) 19-1차(한남동 524-6 정겨운 마을마당)","공원14-79(00) 19-1차(한남동 524-6 정겨운 마을마당)","37.5303","127.0070","1","2022-12-01"
"용산구","공원14-80(00) 19-1차(한남동 1-32 독서당 소공원)","공원14-80(00) 19-1차(한남동 1-32 독서당 소공원)","37.5343","127.0125","1","2022-12-01"
"용산구","공원14-85(00) 20-2차(한남동 432 자투리녹지대)","공원14-85(00) 20-2차(한남동 432 자투리녹지대)","37.5307","127.0111","1","2022-12-01"
"용산구","공원14-85(A1) 20-2차(한남동 432 자투리녹지대)","공원14-85(A1) 20-2차(한남동 432 자투리녹지대)","37.5308","127.0111","1","2022-12-01"
"용산구","공원16-49(00) (보광동 231-17 달맞이 어린이공원)","공원16-49(00) (보광동 231-17 달맞이 어린이공원)","37.5279","126.9980","1","2022-12-01"
"용산구","공원7-07(00) (의열사당 전면)","공원7-07(00) (의열사당 전면)","37.5451","126.9610","1","2022-12-01"
"용산구","공원7-08(00) (의열사당 후면)","공원7-08(00) (의열사당 후면)","37.5454","126.9603","1","2022-12-01"
"용산구","공원7-09(00) (백범김구 묘역)","공원7-09(00) (백범김구 묘역)","37.5455","126.9600","1","2022-12-01"
"용산구","공원7-10(00) (삼의사 묘역)","공원7-10(00) (삼의사 묘역)","37.5452","126.9613","1","2022-12-01"
"용산구","공원7-11(00) 20-2차(임정요인 묘역)","공원7-11(00) 20-2차(임정요인 묘역)","37.5440","126.9626","1","2022-12-01"
"용산구","공원7-12(00) 20-2차(생태연못)","공원7-12(00) 20-2차(생태연못)","37.5462","126.9628","1","2022-12-01"
"용산구","공원7-13(00) 20-2차(어린이 놀이터)","공원7-13(00) 20-2차(어린이 놀이터)","37.5449","126.9631","1","2022-12-01"
"용산구","공원7-14(00) 20-2차(원효대사 동상 전면)","공원7-14(00) 20-2차(원효대사 동상 전면)","37.5452","126.9632","1","2022-12-01"
"용산구","공원7-15(00) 20-2차(게이트볼장)","공원7-15(00) 20-2차(게이트볼장)","37.5439","126.9578","1","2022-12-01"
"용산구","공원7-16(00) 20-2차(반공투사 위령탑)","공원7-16(00) 20-2차(반공투사 위령탑)","37.5457","126.9602","1","2022-12-01"
"용산구","공원7-17(00) 20-2차(관리사무소 앞(창열문 공원입구))","공원7-17(00) 20-2차(관리사무소 앞(창열문 공원입구))","37.5446","126.9622","1","2022-12-01"
"용산구","공원7-18(00) (임정요인 앞 산책로)","공원7-18(00) (임정요인 앞 산책로)","37.5439","126.9631","1","2022-12-01"
"용산구","공원7-19(00) 20-2차(의열광장)","공원7-19(00) 20-2차(의열광장)","37.5452","126.9611","1","2022-12-01"
"용산구","공원7-20(00) (노인회관)","공원7-20(00) (노인회관)","37.5448","126.9590","1","2022-12-01"
"용산구","공원7-21(00) (어린이놀이터 화장실)","공원7-21(00) (어린이놀이터 화장실)","37.5450","126.9630","1","2022-12-01"
"용산구","공원7-33(00) (원효대사 동상 후면)","공원7-33(00) (원효대사 동상 후면)","37.5455","126.9628","1","2022-12-01"
"용산구","공원7-34(00) (생태공원 산책로)","공원7-34(00) (생태공원 산책로)","37.5462","126.9631","1","2022-12-01"
"용산구","공원7-35(00) (공원후문 휴게공간)","공원7-35(00) (공원후문 휴게공간)","37.5464","126.9618","1","2022-12-01"
"용산구","공원7-36(00) 20-2차(공원후문 운동공간)","공원7-36(00) 20-2차(공원후문 운동공간)","37.5464","126.9615","1","2022-12-01"
"용산구","공원7-37(00) (반공투사위령탑주변 화장실 (기념식수지화장실))","공원7-37(00) (반공투사위령탑주변 화장실 (기념식수지화장실))","37.5460","126.9603","1","2022-12-01"
"용산구","공원7-38(00) (노인회관 옆 쉼터)","공원7-38(00) (노인회관 옆 쉼터)","37.5452","126.9589","1","2022-12-01"
"용산구","공원7-39(00) (대한노인회 중앙회 입구)","공원7-39(00) (대한노인회 중앙회 입구)","37.5442","126.9581","1","2022-12-01"
"용산구","공원7-40(00) (관리사무소 화장실주변)","공원7-40(00) (관리사무소 화장실주변)","37.5448","126.9623","1","2022-12-01"
"용산구","공원7-41(00) (게이트볼장 화장실)","공원7-41(00) (게이트볼장 화장실)","37.5436","126.9586","1","2022-12-01"
"용산구","공원7-47(00) (효창공원내 운동시설)","공원7-47(00) (효창공원내 운동시설)","37.5463","126.9613","1","2022-12-01"
"용산구","공원7-49(00) 20-2차(의열사당 내부)","공원7-49(00) 20-2차(의열사당 내부)","37.5453","126.9604","1","2022-12-01"
"용산구","교지01-28(00) 20-2차(후암동 30-171 앞(용산도서관 앞))","교지01-28(00) 20-2차(후암동 30-171 앞(용산도서관 앞))","37.5517","126.9801","1","2022-12-01"
"용산구","교지01-33(00) (후암동 418-13)","교지01-33(00) (후암동 418-13)","37.5469","126.9813","1","2022-12-01"
"용산구","교지01-41(00) (후암동 63-3 후암시장)","교지01-41(00) (후암동 63-3 후암시장)","37.5502","126.9772","1","2022-12-01"
"용산구","교지01-52(00) (후암동 336-11 대림하이츠타운 앞)","교지01-52(00) (후암동 336-11 대림하이츠타운 앞)","37.5500","126.9815","1","2022-12-01"
"용산구","교지01-52(A1) (두텁바위로 127)","교지01-52(A1) (두텁바위로 127)","37.5503","126.9814","1","2022-12-01"
"용산구","교지02-35(00) (용산동2가 11-13 용산동2가 주민센터)","교지02-35(00) (용산동2가 11-13 용산동2가 주민센터)","37.5459","126.9855","1","2022-12-01"
"용산구","교지02-46(00) (용산동2가 46-3 수호빌라 앞)","교지02-46(00) (용산동2가 46-3 수호빌라 앞)","37.5406","126.9869","1","2022-12-01"
"용산구","교지02-47(00) (용산동2가 45-5 새마을금고 건너편)","교지02-47(00) (용산동2가 45-5 새마을금고 건너편)","37.5419","126.9874","1","2022-12-01"
"용산구","교지03-09(00) (갈월동 87-5 숙대입구역)","교지03-09(00) (갈월동 87-5 숙대입구역)","37.5439","126.9721","1","2022-12-01"
"용산구","교지04-16(00) (청파동2가 87-3 데뷰 맞은편)","교지04-16(00) (청파동2가 87-3 데뷰 맞은편)","37.5448","126.9688","1","2022-12-01"
"용산구","교지04-65(00) 19-1차(청파동2가 1-157 숙대 명재관 앞)","교지04-65(00) 19-1차(청파동2가 1-157 숙대 명재관 앞)","37.5468","126.9650","1","2022-12-01"
"용산구","교지04-67(00) (서계동 267-64 배문고등학교 정문)","교지04-67(00) (서계동 267-64 배문고등학교 정문)","37.5503","126.9637","1","2022-12-01"
"용산구","교지04-75(00) 21-2차(청파동1가 204-8 청파초 담장)","교지04-75(00) 21-2차(청파동1가 204-8 청파초 담장)","37.5482","126.9643","1","2022-12-01"
"용산구","교지05-07(00) (신계동 40-1 전자상가4 공영주차장)","교지05-07(00) (신계동 40-1 전자상가4 공영주차장)","37.5337","126.9616","1","2022-12-01"
"용산구","교지05-08(00) (문배동 8-5 단박돈까스 앞)","교지05-08(00) (문배동 8-5 단박돈까스 앞)","37.5382","126.9710","1","2022-12-01"
"용산구","교지05-35(00) 20-2차(문배동 7-6 이안아파트 102동)","교지05-35(00) 20-2차(문배동 7-6 이안아파트 102동)","37.5382","126.9700","1","2022-12-01"
"용산구","교지05-41(00) 21-2차(문배동 24-6 CJ나인파크 202동 인도상)","교지05-41(00) 21-2차(문배동 24-6 CJ나인파크 202동 인도상)","37.5360","126.9686","1","2022-12-01"
"용산구","교지05-42(00) (원효로89길18 용산경찰서 앞)","교지05-42(00) (원효로89길18 용산경찰서 앞)","37.5408","126.9682","1","2022-12-01"
"용산구","교지05-43(00) (원효로97길22 아세아항공학교 앞)","교지05-43(00) (원효로97길22 아세아항공학교 앞)","37.5420","126.9693","1","2022-12-01"
"용산구","교지06-01(00) (원효로3가 46-1 우체국 맞은 편)","교지06-01(00) (원효로3가 46-1 우체국 맞은 편)","37.5351","126.9600","1","2022-12-01"
"용산구","교지06-01(A1) (원효로2가 90-8)","교지06-01(A1) (원효로2가 90-8)","37.5356","126.9608","1","2022-12-01"
"용산구","교지06-10(00) (원효로3가 179-1 한일카피어 맞은편)","교지06-10(00) (원효로3가 179-1 한일카피어 맞은편)","37.5341","126.9561","1","2022-12-01"
"용산구","교지06-18(00) 20-2차(산천동 193 일민유치원 정문 앞)","교지06-18(00) 20-2차(산천동 193 일민유치원 정문 앞)","37.5343","126.9494","1","2022-12-01"
"용산구","교지07-44(00) (효창원로 136 (효창동 5-102) 금양초등학교)","교지07-44(00) (효창원로 136 (효창동 5-102) 금양초등학교)","37.5400","126.9618","1","2022-12-01"
"용산구","교지07-48(00) 19-1차(효창동 97-1 효창파크 KCC스위첸)","교지07-48(00) 19-1차(효창동 97-1 효창파크 KCC스위첸)","37.5397","126.9605","1","2022-12-01"
"용산구","교지09-20(00) 20-2차(한강로2가 276-3 용산초등학교 정문 앞)","교지09-20(00) 20-2차(한강로2가 276-3 용산초등학교 정문 앞)","37.5351","126.9727","1","2022-12-01"
"용산구","교지09-21(00) (한강로3가 40-969 터미널전자상가)","교지09-21(00) (한강로3가 40-969 터미널전자상가)","37.5322","126.9624","1","2022-12-01"
"용산구","교지09-29(00) (용산동5가 24 파크타워)","교지09-29(00) (용산동5가 24 파크타워)","37.5240","126.9721","1","2022-12-01"
"용산구","교지09-43(00) (한강로3가 63-389 용산시티파크 102동 103동 사이 미니스탑 앞)","교지09-43(00) (한강로3가 63-389 용산시티파크 102동 103동 사이 미니스탑 앞)","37.5254","126.9688","1","2022-12-01"
"용산구","교지09-46(00) (한강로3가 65-8 용산공고 뒷길)","교지09-46(00) (한강로3가 65-8 용산공고 뒷길)","37.5243","126.9659","1","2022-12-01"
"용산구","교지09-47(00) (한강로3가 40-571 여천식당 옆)","교지09-47(00) (한강로3가 40-571 여천식당 옆)","37.5246","126.9600","1","2022-12-01"
"용산구","교지09-51(00) 20-2차(한강로2가 422 용산역 앞)","교지09-51(00) 20-2차(한강로2가 422 용산역 앞)","37.5288","126.9658","1","2022-12-01"
"용산구","교지09-53(00) (한강로2가 2-292 용산베르디움프렌즈아파트 101동 앞)","교지09-53(00) (한강로2가 2-292 용산베르디움프렌즈아파트 101동 앞)","37.5359","126.9712","1","2022-12-01"
"용산구","교지09-54(00) (한강로2가 2-299 용산베르디움프렌즈아파트 102동 앞)","교지09-54(00) (한강로2가 2-299 용산베르디움프렌즈아파트 102동 앞)","37.5353","126.9709","1","2022-12-01"
"용산구","교지09-62(00) (한강로2가 15-14 선인상가 22동 15번출구)","교지09-62(00) (한강로2가 15-14 선인상가 22동 15번출구)","37.5327","126.9667","1","2022-12-01"
"용산구","교지09-63(00) (한강로2가 424 아모레퍼시픽 주차장 출입구  )","교지09-63(00) (한강로2가 424 아모레퍼시픽 주차장 출입구  )","37.5281","126.9687","1","2022-12-01"
"용산구","교지10-13(00) 20-2차(이촌동 409 충신유치원 앞)","교지10-13(00) 20-2차(이촌동 409 충신유치원 앞)","37.5212","126.9729","1","2022-12-01"
"용산구","교지10-25(00) (이촌동 302-44 LG한강자이)","교지10-25(00) (이촌동 302-44 LG한강자이)","37.5202","126.9703","1","2022-12-01"
"용산구","교지10-33(00) (이촌동 301-75 신용산초교 정문 앞)","교지10-33(00) (이촌동 301-75 신용산초교 정문 앞)","37.5195","126.9751","1","2022-12-01"
"용산구","교지10-34(00) (이촌동 300-301 삼익상가 앞)","교지10-34(00) (이촌동 300-301 삼익상가 앞)","37.5189","126.9768","1","2022-12-01"
"용산구","교지10-35(00) (이촌동 301-195 강촌아파트 103동 앞)","교지10-35(00) (이촌동 301-195 강촌아파트 103동 앞)","37.5186","126.9783","1","2022-12-01"
"용산구","교지10-41(00) (이촌동 302-64 동부센트레빌)","교지10-41(00) (이촌동 302-64 동부센트레빌)","37.5205","126.9673","1","2022-12-01"
"용산구","교지10-45(00) (이촌동 301-78(이촌로65가길 91) 용강중학교)","교지10-45(00) (이촌동 301-78(이촌로65가길 91) 용강중학교)","37.5209","126.9754","1","2022-12-01"
"용산구","교지10-47(00) (이촌로 303 현대아파트 21동 한국약국 앞)","교지10-47(00) (이촌로 303 현대아파트 21동 한국약국 앞)","37.5179","126.9812","1","2022-12-01"
"용산구","교지10-48(00) (이촌동 301-170 동작대교 하부 반도APT 출입구)","교지10-48(00) (이촌동 301-170 동작대교 하부 반도APT 출입구)","37.5169","126.9829","1","2022-12-01"
"용산구","교지10-50(00) (이촌동 302-51 국민은행 앞)","교지10-50(00) (이촌동 302-51 국민은행 앞)","37.5211","126.9696","1","2022-12-01"
"용산구","교지11-11(00) (이촌동 193-3 동아그린아파트 입구)","교지11-11(00) (이촌동 193-3 동아그린아파트 입구)","37.5240","126.9591","1","2022-12-01"
"용산구","교지12-08(00) (이태원1동 140-2 보광초교 입구)","교지12-08(00) (이태원1동 140-2 보광초교 입구)","37.5330","126.9956","1","2022-12-01"
"용산구","교지12-09(00) (이태원1동 130-42 해롯앤틱갤러리)","교지12-09(00) (이태원1동 130-42 해롯앤틱갤러리)","37.5333","126.9942","1","2022-12-01"
"용산구","교지12-16(00) (이태원1동 119-11 이태원 노스비치)","교지12-16(00) (이태원1동 119-11 이태원 노스비치)","37.5346","126.9931","1","2022-12-01"
"용산구","교지12-17(00) (이태원1동 127-5 파리양복점)","교지12-17(00) (이태원1동 127-5 파리양복점)","37.5345","126.9949","1","2022-12-01"
"용산구","교지12-18(00) (이태원1동 172-2 이태원 커피 스미스)","교지12-18(00) (이태원1동 172-2 이태원 커피 스미스)","37.5345","126.9912","1","2022-12-01"
"용산구","교지12-25(00) (이태원동 57-34 이태원 입구)","교지12-25(00) (이태원동 57-34 이태원 입구)","37.5344","126.9898","1","2022-12-01"
"용산구","교지12-26(00) (이태원동 124-4 이태원 카페베네)","교지12-26(00) (이태원동 124-4 이태원 카페베네)","37.5346","126.9959","1","2022-12-01"
"용산구","교지12-27(00) (이태원동 112-5 해밀턴호텔 뒤)","교지12-27(00) (이태원동 112-5 해밀턴호텔 뒤)","37.5349","126.9943","1","2022-12-01"
"용산구","교지12-34(00) 19-1차(이태원1동 72-25 퀴논길 미스테이크룸 옆)","교지12-34(00) 19-1차(이태원1동 72-25 퀴논길 미스테이크룸 옆)","37.5339","126.9929","1","2022-12-01"
"용산구","교지13-26(00) (이태원동 241-2 가야랑 버스승차장 앞)","교지13-26(00) (이태원동 241-2 가야랑 버스승차장 앞)","37.5402","126.9939","1","2022-12-01"
"용산구","교지13-27(00) (이태원2동 226-3 회나무로 중간(녹지정))","교지13-27(00) (이태원2동 226-3 회나무로 중간(녹지정))","37.5397","126.9916","1","2022-12-01"
"용산구","교지13-27(A1) (이태원동 225-136)","교지13-27(A1) (이태원동 225-136)","37.5392","126.9913","1","2022-12-01"
"용산구","교지13-33(00) (이태원동 729(녹사평대로 254) 남산대림아파트 102동 앞)","교지13-33(00) (이태원동 729(녹사평대로 254) 남산대림아파트 102동 앞)","37.5409","126.9880","1","2022-12-01"
"용산구","교지13-33(A1) (이태원동 729(녹사평대로 254) 남산대림아파트 105동 앞)","교지13-33(A1) (이태원동 729(녹사평대로 254) 남산대림아파트 105동 앞)","37.5415","126.9882","1","2022-12-01"
"용산구","교지13-40(00) (이태원동 278-13 이태원지구대 자율방범대 앞)","교지13-40(00) (이태원동 278-13 이태원지구대 자율방범대 앞)","37.5406","126.9896","1","2022-12-01"
"용산구","교지13-42(00) (이태원동 613 이태원초교 정문)","교지13-42(00) (이태원동 613 이태원초교 정문)","37.5350","126.9873","1","2022-12-01"
"용산구","교지14-31(00) (한남동 263-10 성아맨숀아파트 앞)","교지14-31(00) (한남동 263-10 성아맨숀아파트 앞)","37.5340","127.0088","1","2022-12-01"
"용산구","교지14-32(00) (한남동 704-2 한남대로 SK주유소 앞)","교지14-32(00) (한남동 704-2 한남대로 SK주유소 앞)","37.5349","127.0062","1","2022-12-01"
"용산구","교지14-38(00) 20-2차(한남동 4-28 독일인학교 진입부)","교지14-38(00) 20-2차(한남동 4-28 독일인학교 진입부)","37.5371","127.0124","1","2022-12-01"
"용산구","교지14-40(00) (한남동 683-142 한남동 우리은행 건너편)","교지14-40(00) (한남동 683-142 한남동 우리은행 건너편)","37.5362","127.0001","1","2022-12-01"
"용산구","교지14-54(00) (한남동 657-58 순천향대 병원)","교지14-54(00) (한남동 657-58 순천향대 병원)","37.5334","127.0042","1","2022-12-01"
"용산구","교지14-56(00) (한남동 726-494 용산여성문화원 건너편)","교지14-56(00) (한남동 726-494 용산여성문화원 건너편)","37.5394","127.0016","1","2022-12-01"
"용산구","교지14-57(00) (한남동 682-20 브랜든체이스 앞)","교지14-57(00) (한남동 682-20 브랜든체이스 앞)","37.5381","127.0017","1","2022-12-01"
"용산구","교지14-58(00) (한남동 72-1(한남대로20길) 한남동 리첸시아)","교지14-58(00) (한남동 72-1(한남대로20길) 한남동 리첸시아)","37.5347","127.0078","1","2022-12-01"
"용산구","교지14-66(00) (한남동522-1(독서당로22) 한남유수지 공영주차장)","교지14-66(00) (한남동522-1(독서당로22) 한남유수지 공영주차장)","37.5298","127.0079","1","2022-12-01"
"용산구","교지14-67(00) (한남동 32-17(독서당로 89) 한남동 유엔빌리지 입구)","교지14-67(00) (한남동 32-17(독서당로 89) 한남동 유엔빌리지 입구)","37.5347","127.0102","1","2022-12-01"
"용산구","교지14-69(00) (한남동 631-5(대사관로34길 26) 한남동 롯데슈퍼)","교지14-69(00) (한남동 631-5(대사관로34길 26) 한남동 롯데슈퍼)","37.5320","127.0056","1","2022-12-01"
"용산구","교지14-69(A1) (대사관로34길 31-8)","교지14-69(A1) (대사관로34길 31-8)","37.5318","127.0062","1","2022-12-01"
"용산구","교지14-70(00) (버티고개역-한남광장 다산로)","교지14-70(00) (버티고개역-한남광장 다산로)","37.5478","127.0044","1","2022-12-01"
"용산구","교지14-72(00) (한남동 662-3 라오스대사관저 앞 대로변)","교지14-72(00) (한남동 662-3 라오스대사관저 앞 대로변)","37.5337","127.0015","1","2022-12-01"
"용산구","교지14-76(00) 19-1차(한남동 634-14 순천향병원 사거리)","교지14-76(00) 19-1차(한남동 634-14 순천향병원 사거리)","37.5331","127.0065","1","2022-12-01"
"용산구","교지14-78(00) 19-1차(한남동 821 한남노인요양병원 건너편)","교지14-78(00) 19-1차(한남동 821 한남노인요양병원 건너편)","37.5357","127.0100","1","2022-12-01"
"용산구","교지14-82(00) (한남동 682-12)","교지14-82(00) (한남동 682-12)","37.5376","127.0022","1","2022-12-01"
"용산구","교지14-82(A1) (한남동 683-7 홉가든한남 옆)","교지14-82(A1) (한남동 683-7 홉가든한남 옆)","37.5372","127.0018","1","2022-12-01"
"용산구","교지14-95(00) 21-2차(한남동 726-1 한남초등학교 정문 앞)","교지14-95(00) 21-2차(한남동 726-1 한남초등학교 정문 앞)","37.5383","127.0049","1","2022-12-01"
"용산구","교지14-96(00) 21-2차(한남동 737-24 GUCCI  앞)","교지14-96(00) 21-2차(한남동 737-24 GUCCI  앞)","37.5354","126.9987","1","2022-12-01"
"용산구","교지14-97(00) 21-2차(한남동 683-31  PIPIT 앞)","교지14-97(00) 21-2차(한남동 683-31  PIPIT 앞)","37.5379","127.0018","1","2022-12-01"
"용산구","교지14-98(00) 21-2차(한남동 685-21 주차장 옆)","교지14-98(00) 21-2차(한남동 685-21 주차장 옆)","37.5378","127.0017","1","2022-12-01"
"용산구","교지15-18(00) 21-2차(서빙고동 235-1 서빙고초 버스 정류장 앞)","교지15-18(00) 21-2차(서빙고동 235-1 서빙고초 버스 정류장 앞)","37.5208","126.9908","1","2022-12-01"
"용산구","교지15-22(00) (서빙고동 241-96 온누리교회 앞)","교지15-22(00) (서빙고동 241-96 온누리교회 앞)","37.5179","126.9854","1","2022-12-01"
"용산구","교지15-33(00) 20-2차(동빙고동 7-18 칠백싱당 앞)","교지15-33(00) 20-2차(동빙고동 7-18 칠백싱당 앞)","37.5287","126.9922","1","2022-12-01"
"용산구","교지15-35(00) 20-2차(동빙고동 315 푸르지오 101동)","교지15-35(00) 20-2차(동빙고동 315 푸르지오 101동)","37.5253","126.9954","1","2022-12-01"
"용산구","교지16-12(00) (보광동 448 세븐일레븐 보광점 앞)","교지16-12(00) (보광동 448 세븐일레븐 보광점 앞)","37.5261","127.0010","1","2022-12-01"
"용산구","교지16-24(00) (보광동 274-1 폴리텍대학 삼거리)","교지16-24(00) (보광동 274-1 폴리텍대학 삼거리)","37.5303","126.9967","1","2022-12-01"
"용산구","교행01-26(00) 20-3차(후암동 239-1 새나라어린이공원 앞)","교행01-26(00) 20-3차(후암동 239-1 새나라어린이공원 앞)","37.5484","126.9764","1","2022-12-01"
"용산구","교행01-26(A1) (후암로15길 19-13 새나라어린이공원 앞)","교행01-26(A1) (후암로15길 19-13 새나라어린이공원 앞)","37.5485","126.9764","1","2022-12-01"
"용산구","교행01-27(00) 21-1차(후암동 238-11 삼광초교 후문 앞)","교행01-27(00) 21-1차(후암동 238-11 삼광초교 후문 앞)","37.5476","126.9775","1","2022-12-01"
"용산구","교행01-29(00) 21-1차(후암동 339-23 후암초교 후문 앞)","교행01-29(00) 21-1차(후암동 339-23 후암초교 후문 앞)","37.5505","126.9825","1","2022-12-01"
"용산구","교행01-43(00) 21-1차(후암동 43-28 후암초등학교 정문)","교행01-43(00) 21-1차(후암동 43-28 후암초등학교 정문)","37.5516","126.9812","1","2022-12-01"
"용산구","교행01-43(A1) 21-1차(후암동 45-44)","교행01-43(A1) 21-1차(후암동 45-44)","37.5513","126.9807","1","2022-12-01"
"용산구","교행01-45(00) 21-1차(후암동 45-32 후암초교)","교행01-45(00) 21-1차(후암동 45-32 후암초교)","37.5505","126.9809","1","2022-12-01"
"용산구","교행01-46(00) 21-1차(후암동 30-5 복자유치원)","교행01-46(00) 21-1차(후암동 30-5 복자유치원)","37.5523","126.9783","1","2022-12-01"
"용산구","교행01-47(00) 20-3차(후암동 195-1 타워빌 주차장 앞(삼광초교))","교행01-47(00) 20-3차(후암동 195-1 타워빌 주차장 앞(삼광초교))","37.5465","126.9779","1","2022-12-01"
"용산구","교행01-51(00) (두텁바위로13길 8 삼광초교)","교행01-51(00) (두텁바위로13길 8 삼광초교)","37.5461","126.9768","1","2022-12-01"
"용산구","교행01-53(00) 19-1차(후암동 244-5 행남그랜드아파트 앞)","교행01-53(00) 19-1차(후암동 244-5 행남그랜드아파트 앞)","37.5480","126.9780","1","2022-12-01"
"용산구","교행02-19(00) (용산동2가 47-16 주택 앞)","교행02-19(00) (용산동2가 47-16 주택 앞)","37.5409","126.9873","1","2022-12-01"
"용산구","교행02-19(A1) (용산동2가 46-7 GS25 용산고바우점 맞은편)","교행02-19(A1) (용산동2가 46-7 GS25 용산고바우점 맞은편)","37.5410","126.9871","1","2022-12-01"
"용산구","교행02-20(00) (용산동2가 45-6 한국달리다굼선교회 앞)","교행02-20(00) (용산동2가 45-6 한국달리다굼선교회 앞)","37.5418","126.9875","1","2022-12-01"
"용산구","교행02-21(00) (용산동2가 15-18 빨래방 코너)","교행02-21(00) (용산동2가 15-18 빨래방 코너)","37.5452","126.9863","1","2022-12-01"
"용산구","교행02-28(00) 20-2차(용산2가동 5-249 3호터널 상부)","교행02-28(00) 20-2차(용산2가동 5-249 3호터널 상부)","37.5450","126.9883","1","2022-12-01"
"용산구","교행02-29(00) 20-3차(용산2가동 5-1862 남산교회 앞 삼거리)","교행02-29(00) 20-3차(용산2가동 5-1862 남산교회 앞 삼거리)","37.5450","126.9878","1","2022-12-01"
"용산구","교행02-29(A1) 19-1차(용산2가동 25-3)","교행02-29(A1) 19-1차(용산2가동 25-3)","37.5446","126.9877","1","2022-12-01"
"용산구","교행02-30(00) 20-3차(용산2가동 47-20 반포로 지하보도 앞)","교행02-30(00) 20-3차(용산2가동 47-20 반포로 지하보도 앞)","37.5433","126.9881","1","2022-12-01"
"용산구","교행02-30(B1) (신흥로 56)","교행02-30(B1) (신흥로 56)","37.5435","126.9876","1","2022-12-01"
"용산구","교행02-30(C1) (용산동2가 5-1304 반포로 지하보도 내부)","교행02-30(C1) (용산동2가 5-1304 반포로 지하보도 내부)","37.5434","126.9884","1","2022-12-01"
"용산구","교행02-39(00) (용산2가동 5-1451 용암초교)","교행02-39(00) (용산2가동 5-1451 용암초교)","37.5456","126.9887","1","2022-12-01"
"용산구","교행04-26(00) 21-1차(청파동3가 61-2)","교행04-26(00) 21-1차(청파동3가 61-2)","37.5434","126.9706","1","2022-12-01"
"용산구","교행04-27(00) 21-1차(청파동2가 1-42 청파초교 정문 앞 보도)","교행04-27(00) 21-1차(청파동2가 1-42 청파초교 정문 앞 보도)","37.5473","126.9635","1","2022-12-01"
"용산구","교행04-28(00) 21-1차(청파동2가 3-7 숙명 명재관 주변)","교행04-28(00) 21-1차(청파동2가 3-7 숙명 명재관 주변)","37.5464","126.9658","1","2022-12-01"
"용산구","교행04-29(00) 21-1차(서계동 109 보윤유치원 진입부)","교행04-29(00) 21-1차(서계동 109 보윤유치원 진입부)","37.5505","126.9677","1","2022-12-01"
"용산구","교행04-33(00) 20-2차(청파동 1가 89-122 청파초교 후문 신일마트 앞)","교행04-33(00) 20-2차(청파동 1가 89-122 청파초교 후문 신일마트 앞)","37.5483","126.9651","1","2022-12-01"
"용산구","교행04-33(B1) (효창원로86다길 15)","교행04-33(B1) (효창원로86다길 15)","37.5484","126.9658","1","2022-12-01"
"용산구","교행04-43(00) 21-1차(청파동 85-13 신광초등학교 뒷길)","교행04-43(00) 21-1차(청파동 85-13 신광초등학교 뒷길)","37.5424","126.9700","1","2022-12-01"
"용산구","교행04-43(A1) 21-1차(청파동3가 94 신광초등학교 뒷길)","교행04-43(A1) 21-1차(청파동3가 94 신광초등학교 뒷길)","37.5424","126.9697","1","2022-12-01"
"용산구","교행04-64(00) (청파동3가 107-78 GS25 맞은편)","교행04-64(00) (청파동3가 107-78 GS25 맞은편)","37.5435","126.9691","1","2022-12-01"
"용산구","교행04-64(A1) (청파동3가 29-23)","교행04-64(A1) (청파동3가 29-23)","37.5439","126.9692","1","2022-12-01"
"용산구","교행05-12(00) 21-1차(원효로2가 27-2 원효로 남정초 진입부)","교행05-12(00) 21-1차(원효로2가 27-2 원효로 남정초 진입부)","37.5366","126.9638","1","2022-12-01"
"용산구","교행05-13(A1) (원효로 214-6)","교행05-13(A1) (원효로 214-6)","37.5374","126.9661","1","2022-12-01"
"용산구","교행05-14(00) (신계동 18-18 남정초 일방통행시점부)","교행05-14(00) (신계동 18-18 남정초 일방통행시점부)","37.5349","126.9645","1","2022-12-01"
"용산구","교행05-29(00) (원효로58길 17 (원효로2가 57-13) 남정초교 앞)","교행05-29(00) (원효로58길 17 (원효로2가 57-13) 남정초교 앞)","37.5355","126.9634","1","2022-12-01"
"용산구","교행05-31(00) (청파로 139-25 남정초교)","교행05-31(00) (청파로 139-25 남정초교)","37.5349","126.9667","1","2022-12-01"
"용산구","교행06-16(00) 21-1차(산천동 6-73 한강타운 정문 좌측)","교행06-16(00) 21-1차(산천동 6-73 한강타운 정문 좌측)","37.5357","126.9514","1","2022-12-01"
"용산구","교행06-17(00) (산천동 1-1 계성유치원 정문 앞)","교행06-17(00) (산천동 1-1 계성유치원 정문 앞)","37.5358","126.9532","1","2022-12-01"
"용산구","교행06-29(00) (산천동 6-79 원효초교 윗길)","교행06-29(00) (산천동 6-79 원효초교 윗길)","37.5364","126.9515","1","2022-12-01"
"용산구","교행06-30(00) (산천동 198 원효초교 아래)","교행06-30(00) (산천동 198 원효초교 아래)","37.5356","126.9528","1","2022-12-01"
"용산구","교행06-31(00) 19-1차(청암동 178 청암자이아파트 앞)","교행06-31(00) 19-1차(청암동 178 청암자이아파트 앞)","37.5350","126.9485","1","2022-12-01"
"용산구","교행06-31(A1) 19-1차(청암동 178 청암자이아파트 앞)","교행06-31(A1) 19-1차(청암동 178 청암자이아파트 앞)","37.5349","126.9486","1","2022-12-01"
"용산구","교행07-26(00) 21-1차(효창동 126-4 금양초교 정문 앞 보도)","교행07-26(00) 21-1차(효창동 126-4 금양초교 정문 앞 보도)","37.5401","126.9616","1","2022-12-01"
"용산구","교행07-43(00) (효창동 5-65 금양초교)","교행07-43(00) (효창동 5-65 금양초교)","37.5413","126.9627","1","2022-12-01"
"용산구","교행08-06(00) (용문동 38-142)","교행08-06(00) (용문동 38-142)","37.5378","126.9588","1","2022-12-01"
"용산구","교행08-07(00) (용문동 38-143(북) 뒤쪽 차고 앞 코너)","교행08-07(00) (용문동 38-143(북) 뒤쪽 차고 앞 코너)","37.5379","126.9589","1","2022-12-01"
"용산구","교행08-08(00) (용문동 38-148)","교행08-08(00) (용문동 38-148)","37.5375","126.9587","1","2022-12-01"
"용산구","교행08-09(00) (용문동 38-97)","교행08-09(00) (용문동 38-97)","37.5375","126.9575","1","2022-12-01"
"용산구","교행08-10(00) (용문동 38-175)","교행08-10(00) (용문동 38-175)","37.5372","126.9585","1","2022-12-01"
"용산구","교행08-11(00) (용문동 38-191)","교행08-11(00) (용문동 38-191)","37.5369","126.9583","1","2022-12-01"
"용산구","교행08-12(00) (용문동 38-57)","교행08-12(00) (용문동 38-57)","37.5368","126.9577","1","2022-12-01"
"용산구","교행08-13(00) (용문동 38-186)","교행08-13(00) (용문동 38-186)","37.5372","126.9574","1","2022-12-01"
"용산구","교행08-14(00) (용문동 38-13)","교행08-14(00) (용문동 38-13)","37.5377","126.9570","1","2022-12-01"
"용산구","교행08-15(00) (용문동 38-233)","교행08-15(00) (용문동 38-233)","37.5383","126.9579","1","2022-12-01"
"용산구","교행08-16(00) (용문동 38-76)","교행08-16(00) (용문동 38-76)","37.5372","126.9568","1","2022-12-01"
"용산구","교행08-17(00) (용문동 38-10)","교행08-17(00) (용문동 38-10)","37.5385","126.9576","1","2022-12-01"
"용산구","교행08-18(00) (용문동 38-244)","교행08-18(00) (용문동 38-244)","37.5382","126.9570","1","2022-12-01"
"용산구","교행08-19(00) (용문동 38-38)","교행08-19(00) (용문동 38-38)","37.5368","126.9567","1","2022-12-01"
"용산구","교행08-20(00) (용문동 38-69)","교행08-20(00) (용문동 38-69)","37.5365","126.9564","1","2022-12-01"
"용산구","교행08-21(00) (용문동 12-1)","교행08-21(00) (용문동 12-1)","37.5371","126.9619","1","2022-12-01"
"용산구","교행08-21(A1) (용문동 12-14 앞 전신주)","교행08-21(A1) (용문동 12-14 앞 전신주)","37.5367","126.9616","1","2022-12-01"
"용산구","교행08-21(B1) (용문동 12-14 앞 전신주)","교행08-21(B1) (용문동 12-14 앞 전신주)","37.5367","126.9616","1","2022-12-01"
"용산구","교행08-26(00) 21-1차(도원동 23 삼성래미안 후문 앞)","교행08-26(00) 21-1차(도원동 23 삼성래미안 후문 앞)","37.5372","126.9537","1","2022-12-01"
"용산구","교행08-27(00) 21-1차(도원동 4-3 도원유치원 정문 앞)","교행08-27(00) 21-1차(도원동 4-3 도원유치원 정문 앞)","37.5390","126.9579","1","2022-12-01"
"용산구","교행09-24(00) 21-1차(한강로2가 1 국립맹학교 앞 보도)","교행09-24(00) 21-1차(한강로2가 1 국립맹학교 앞 보도)","37.5344","126.9720","1","2022-12-01"
"용산구","교행09-25(00) (한강로1가 286 삼각지역 6번 출구 앞 보도)","교행09-25(00) (한강로1가 286 삼각지역 6번 출구 앞 보도)","37.5349","126.9729","1","2022-12-01"
"용산구","교행09-26(00) (한강로3가 65-217 한강초교 정문 앞)","교행09-26(00) (한강로3가 65-217 한강초교 정문 앞)","37.5255","126.9651","1","2022-12-01"
"용산구","교행09-27(00) 20-3차(한강로3가 89 쌍용스윗닷홈 앞 삼거리)","교행09-27(00) 20-3차(한강로3가 89 쌍용스윗닷홈 앞 삼거리)","37.5239","126.9640","1","2022-12-01"
"용산구","교행09-35(00) 20-2차(한강로1가 257-9 용산초교 옆 골목)","교행09-35(00) 20-2차(한강로1가 257-9 용산초교 옆 골목)","37.5357","126.9728","1","2022-12-01"
"용산구","교행10-28(00) 21-1차(이촌1동 301-27 신용산초교 용강중 사이 길)","교행10-28(00) 21-1차(이촌1동 301-27 신용산초교 용강중 사이 길)","37.5209","126.9754","1","2022-12-01"
"용산구","교행10-29(00) 21-1차(이촌1동 300-326 중경고 진입부 삼거리)","교행10-29(00) 21-1차(이촌1동 300-326 중경고 진입부 삼거리)","37.5184","126.9768","1","2022-12-01"
"용산구","교행10-30(A1) (이촌로89길 50 한강교회 정문)","교행10-30(A1) (이촌로89길 50 한강교회 정문)","37.5193","126.9811","1","2022-12-01"
"용산구","교행10-31(00) 20-2차(이촌1동 302-90 장미맨션 앞 보도)","교행10-31(00) 20-2차(이촌1동 302-90 장미맨션 앞 보도)","37.5205","126.9674","1","2022-12-01"
"용산구","교행10-38(00) (이촌동 402 원유치원 앞)","교행10-38(00) (이촌동 402 원유치원 앞)","37.5198","126.9767","1","2022-12-01"
"용산구","교행12-15(00) 21-1차(이태원1동 18-8 보광초교 정문 옆 보도)","교행12-15(00) 21-1차(이태원1동 18-8 보광초교 정문 옆 보도)","37.5322","126.9960","1","2022-12-01"
"용산구","교행12-24(00) 21-1차(이태원동 15-22 보광초교 앞 골목)","교행12-24(00) 21-1차(이태원동 15-22 보광초교 앞 골목)","37.5318","126.9962","1","2022-12-01"
"용산구","교행12-29(00) (이태원동 455-52 편의점 맞은편)","교행12-29(00) (이태원동 455-52 편의점 맞은편)","37.5344","126.9889","1","2022-12-01"
"용산구","교행13-30(00) (이태원동 260-119)","교행13-30(00) (이태원동 260-119)","37.5413","126.9910","1","2022-12-01"
"용산구","교행13-31(00) (이태원동 411 이태원초교)","교행13-31(00) (이태원동 411 이태원초교)","37.5368","126.9876","1","2022-12-01"
"용산구","교행13-39(00) (이태원동 249-17 부동산 옆 전주)","교행13-39(00) (이태원동 249-17 부동산 옆 전주)","37.5409","126.9916","1","2022-12-01"
"용산구","교행13-39(A1) (회나무로13가길 37-6)","교행13-39(A1) (회나무로13가길 37-6)","37.5412","126.9917","1","2022-12-01"
"용산구","교행13-39(B1) (회나무로13가길 28)","교행13-39(B1) (회나무로13가길 28)","37.5409","126.9911","1","2022-12-01"
"용산구","교행13-39(C1) (이태원2동 253-7)","교행13-39(C1) (이태원2동 253-7)","37.5408","126.9906","1","2022-12-01"
"용산구","교행14-19(00) (한남동 726-332 건너편 삼거리)","교행14-19(00) (한남동 726-332 건너편 삼거리)","37.5449","127.0033","1","2022-12-01"
"용산구","교행14-20(00) (한남동 726-402 건너편 삼거리)","교행14-20(00) (한남동 726-402 건너편 삼거리)","37.5453","127.0030","1","2022-12-01"
"용산구","교행14-21(00) (한남동 726-343(동))","교행14-21(00) (한남동 726-343(동))","37.5441","127.0038","1","2022-12-01"
"용산구","교행14-22(00) (한남동 726-347(서) 앞 사거리)","교행14-22(00) (한남동 726-347(서) 앞 사거리)","37.5442","127.0035","1","2022-12-01"
"용산구","교행14-23(00) (한남동 791-4 맞은편)","교행14-23(00) (한남동 791-4 맞은편)","37.5435","127.0027","1","2022-12-01"
"용산구","교행14-24(00) (한남동 788-7 맞은편)","교행14-24(00) (한남동 788-7 맞은편)","37.5430","127.0034","1","2022-12-01"
"용산구","교행14-25(00) (한남동 794-8 맞은편)","교행14-25(00) (한남동 794-8 맞은편)","37.5425","127.0029","1","2022-12-01"
"용산구","교행14-26(00) (한남동 791-9 맞은편)","교행14-26(00) (한남동 791-9 맞은편)","37.5431","127.0022","1","2022-12-01"
"용산구","교행14-27(00) (한남동 789-6 사거리)","교행14-27(00) (한남동 789-6 사거리)","37.5430","127.0030","1","2022-12-01"
"용산구","교행14-28(00) (한남동 726-380)","교행14-28(00) (한남동 726-380)","37.5444","127.0025","1","2022-12-01"
"용산구","교행14-39(00) 21-1차(한남동 산 10-214 용산국제학교 정문 앞)","교행14-39(00) 21-1차(한남동 산 10-214 용산국제학교 정문 앞)","37.5399","127.0016","1","2022-12-01"
"용산구","교행14-61(00) (한남동 723-5 한남초교)","교행14-61(00) (한남동 723-5 한남초교)","37.5383","127.0059","1","2022-12-01"
"용산구","교행14-68(00) (한남동 685-43 한남동 주민센터 앞)","교행14-68(00) (한남동 685-43 한남동 주민센터 앞)","37.5346","127.0007","1","2022-12-01"
"용산구","교행14-77(00) (한남동 726-542 맑은숲어린이집 뒷길)","교행14-77(00) (한남동 726-542 맑은숲어린이집 뒷길)","37.5447","127.0036","1","2022-12-01"
"용산구","교행15-19(00) 20-2차(서빙고동 4-26 서빙고초교 후문 앞)","교행15-19(00) 20-2차(서빙고동 4-26 서빙고초교 후문 앞)","37.5218","126.9929","1","2022-12-01"
"용산구","교행15-20(00) 21-1차(동빙고동 7-8 동빙고어린이집 앞)","교행15-20(00) 21-1차(동빙고동 7-8 동빙고어린이집 앞)","37.5234","126.9941","1","2022-12-01"
"용산구","교행15-24(00) 20-3차(서빙고동 4-18 서빙고초교)","교행15-24(00) 20-3차(서빙고동 4-18 서빙고초교)","37.5224","126.9925","1","2022-12-01"
"용산구","교행15-25(00) 21-1차(동빙고동 254-4 동빙고어린이집)","교행15-25(00) 21-1차(동빙고동 254-4 동빙고어린이집)","37.5231","126.9951","1","2022-12-01"
"용산구","교행15-25(A1) 21-1차(동빙고동 250-2)","교행15-25(A1) 21-1차(동빙고동 250-2)","37.5228","126.9949","1","2022-12-01"
"용산구","교행16-19(00) 20-3차(보광동 253-44 성심유치원 진입부)","교행16-19(00) 20-3차(보광동 253-44 성심유치원 진입부)","37.5284","126.9996","1","2022-12-01"
"용산구","교행16-29(00) 21-1차(보광로12가길 22 보광어린이집 아래쪽)","교행16-29(00) 21-1차(보광로12가길 22 보광어린이집 아래쪽)","37.5277","127.0011","1","2022-12-01"
"용산구","교행16-32(00) (보광동 265-244)","교행16-32(00) (보광동 265-244)","37.5314","126.9971","1","2022-12-01"
"용산구","교행16-33(00) (보광동 260-40 성심유치원 진입부)","교행16-33(00) (보광동 260-40 성심유치원 진입부)","37.5285","127.0001","1","2022-12-01"
"용산구","자치01-01(00) (후암동 30-93 이지스빌 앞)","자치01-01(00) (후암동 30-93 이지스빌 앞)","37.5516","126.9789","1","2022-12-01"
"용산구","자치01-01(A1) (후암동 30-30 이지스빌 앞)","자치01-01(A1) (후암동 30-30 이지스빌 앞)","37.5516","126.9788","1","2022-12-01"
"용산구","자치01-02(00) (후암동 123-16 삼인리치하우스 앞)","자치01-02(00) (후암동 123-16 삼인리치하우스 앞)","37.5493","126.9749","1","2022-12-01"
"용산구","자치01-02(A1) 19-1차(후암동 123-2 금성교회 앞)","자치01-02(A1) 19-1차(후암동 123-2 금성교회 앞)","37.5498","126.9754","1","2022-12-01"
"용산구","자치01-03(00) (후암동 160-1 후암어린이집 코너)","자치01-03(00) (후암동 160-1 후암어린이집 코너)","37.5476","126.9758","1","2022-12-01"
"용산구","자치01-04(00) (후암동 167-2 거주자우선주차지역)","자치01-04(00) (후암동 167-2 거주자우선주차지역)","37.5465","126.9751","1","2022-12-01"
"용산구","자치01-05(00) (후암동 244-99 화인힐빌라 코너)","자치01-05(00) (후암동 244-99 화인힐빌라 코너)","37.5485","126.9793","1","2022-12-01"
"용산구","자치01-06(00) (후암동 280-5)","자치01-06(00) (후암동 280-5)","37.5476","126.9801","1","2022-12-01"
"용산구","자치01-06(A1) (후암동 283-2)","자치01-06(A1) (후암동 283-2)","37.5480","126.9802","1","2022-12-01"
"용산구","자치01-07(00) (후암동 302 신주에지앙 뒤쪽 담벼락)","자치01-07(00) (후암동 302 신주에지앙 뒤쪽 담벼락)","37.5492","126.9803","1","2022-12-01"
"용산구","자치01-08(00) (후암동 358-63 출입문 코너)","자치01-08(00) (후암동 358-63 출입문 코너)","37.5496","126.9825","1","2022-12-01"
"용산구","자치01-09(00) (후암동 1-14 후암제일교회 앞)","자치01-09(00) (후암동 1-14 후암제일교회 앞)","37.5525","126.9768","1","2022-12-01"
"용산구","자치01-10(00) 20-2차(후암동 406-109 남산중앙교회 맞은편)","자치01-10(00) 20-2차(후암동 406-109 남산중앙교회 맞은편)","37.5482","126.9839","1","2022-12-01"
"용산구","자치01-10(A1) 20-2차(후암동 406-41 맞은편)","자치01-10(A1) 20-2차(후암동 406-41 맞은편)","37.5480","126.9841","1","2022-12-01"
"용산구","자치01-11(00) (후암동 404-61 옆 인도)","자치01-11(00) (후암동 404-61 옆 인도)","37.5472","126.9818","1","2022-12-01"
"용산구","자치01-12(00) 20-2차(후암동 436-2 오페라하우스 9차 앞 도로)","자치01-12(00) 20-2차(후암동 436-2 오페라하우스 9차 앞 도로)","37.5532","126.9787","1","2022-12-01"
"용산구","자치01-15(00) (후암동 409-54 경찰 이동식 카메라)","자치01-15(00) (후암동 409-54 경찰 이동식 카메라)","37.5470","126.9841","1","2022-12-01"
"용산구","자치01-18(00) (후암동 25-1 우체국 뒤)","자치01-18(00) (후암동 25-1 우체국 뒤)","37.5511","126.9774","1","2022-12-01"
"용산구","자치01-19(00) (후암동 403-3 삼성하이츠)","자치01-19(00) (후암동 403-3 삼성하이츠)","37.5481","126.9820","1","2022-12-01"
"용산구","자치01-19(A1) (후암동 394-7)","자치01-19(A1) (후암동 394-7)","37.5480","126.9815","1","2022-12-01"
"용산구","자치01-20(00) (후암동 55-12 미플러스빌 옆 전주)","자치01-20(00) (후암동 55-12 미플러스빌 옆 전주)","37.5498","126.9794","1","2022-12-01"
"용산구","자치01-21(00) (후암동 410-26 고지대 난간 옆 전주)","자치01-21(00) (후암동 410-26 고지대 난간 옆 전주)","37.5471","126.9828","1","2022-12-01"
"용산구","자치01-22(00) (후암동 142-103 후암빌라 옆)","자치01-22(00) (후암동 142-103 후암빌라 옆)","37.5481","126.9749","1","2022-12-01"
"용산구","자치02-01(A1) (용산동2가 1-242)","자치02-01(A1) (용산동2가 1-242)","37.5460","126.9833","1","2022-12-01"
"용산구","자치01-23(00) (후암동 448-158 맞은편 담벼락 혜심원 주변)","자치01-23(00) (후암동 448-158 맞은편 담벼락 혜심원 주변)","37.5537","126.9777","1","2022-12-01"
"용산구","자치01-24(00) (후암동 116-21  소비자유통 앞)","자치01-24(00) (후암동 116-21  소비자유통 앞)","37.5491","126.9761","1","2022-12-01"
"용산구","자치01-24(A1) (후암동 128-7)","자치01-24(A1) (후암동 128-7)","37.5488","126.9755","1","2022-12-01"
"용산구","자치01-24(B1) 21-2차(후암동 129 행남팰리스 앞)","자치01-24(B1) 21-2차(후암동 129 행남팰리스 앞)","37.5490","126.9761","1","2022-12-01"
"용산구","자치01-25(00) (후암동 95-3  부동산 앞 미주아파트 입구)","자치01-25(00) (후암동 95-3  부동산 앞 미주아파트 입구)","37.5522","126.9767","1","2022-12-01"
"용산구","자치01-30(00) (후암동 192-9 주택 앞)","자치01-30(00) (후암동 192-9 주택 앞)","37.5466","126.9771","1","2022-12-01"
"용산구","자치01-31(00) (후암동 358-13 주택 앞)","자치01-31(00) (후암동 358-13 주택 앞)","37.5496","126.9831","1","2022-12-01"
"용산구","자치01-32(00) (후암동 368 영락보린원 뒷골목)","자치01-32(00) (후암동 368 영락보린원 뒷골목)","37.5489","126.9815","1","2022-12-01"
"용산구","자치01-32(A1) (후암로28길 88)","자치01-32(A1) (후암로28길 88)","37.5486","126.9819","1","2022-12-01"
"용산구","자치01-32(B1) (후암로4길 66)","자치01-32(B1) (후암로4길 66)","37.5485","126.9808","1","2022-12-01"
"용산구","자치01-32(C1) (후암로4길 65)","자치01-32(C1) (후암로4길 65)","37.5485","126.9807","1","2022-12-01"
"용산구","자치01-34(00) (후암동 56-38 후암로28길 11 대문 옆)","자치01-34(00) (후암동 56-38 후암로28길 11 대문 옆)","37.5499","126.9781","1","2022-12-01"
"용산구","자치01-35(00) (후암동 254-14 주택 앞)","자치01-35(00) (후암동 254-14 주택 앞)","37.5470","126.9795","1","2022-12-01"
"용산구","자치01-36(00) (후암동 102-59 한아름마트 맞은 편)","자치01-36(00) (후암동 102-59 한아름마트 맞은 편)","37.5505","126.9761","1","2022-12-01"
"용산구","자치01-36(A1) (한강대로104길 67)","자치01-36(A1) (한강대로104길 67)","37.5501","126.9760","1","2022-12-01"
"용산구","자치01-37(00) (후암동 60-27 노바펠리스 앞)","자치01-37(00) (후암동 60-27 노바펠리스 앞)","37.5504","126.9785","1","2022-12-01"
"용산구","자치01-38(00) (후암동 59-26 세탁소 맞은편)","자치01-38(00) (후암동 59-26 세탁소 맞은편)","37.5509","126.9798","1","2022-12-01"
"용산구","자치01-39(00)  21-1차(후암동 143-53 주택 삼거리)","자치01-39(00)  21-1차(후암동 143-53 주택 삼거리)","37.5482","126.9737","1","2022-12-01"
"용산구","자치01-40(00)  21-1차(후암동 400-104 새말경로당 앞)","자치01-40(00)  21-1차(후암동 400-104 새말경로당 앞)","37.5485","126.9830","1","2022-12-01"
"용산구","자치01-42(00)  21-1차(후암동 8 거주자우선주차구역 옆)","자치01-42(00)  21-1차(후암동 8 거주자우선주차구역 옆)","37.5517","126.9772","1","2022-12-01"
"용산구","자치01-44(00)  21-1차(신흥로36가길 11 (후암동 409-136))","자치01-44(00)  21-1차(신흥로36가길 11 (후암동 409-136))","37.5464","126.9827","1","2022-12-01"
"용산구","자치01-48(00) (동자동 19-118 남영빌딩)","자치01-48(00) (동자동 19-118 남영빌딩)","37.5504","126.9749","1","2022-12-01"
"용산구","자치01-48(A1) (한강대로104다길 9)","자치01-48(A1) (한강대로104다길 9)","37.5502","126.9749","1","2022-12-01"
"용산구","자치01-49(00) (후암로44길 24 (후암동 1-27))","자치01-49(00) (후암로44길 24 (후암동 1-27))","37.5525","126.9779","1","2022-12-01"
"용산구","자치01-50(00) (후암로15길 41 코너 삼거리)","자치01-50(00) (후암로15길 41 코너 삼거리)","37.5495","126.9769","1","2022-12-01"
"용산구","자치01-54(00) (후암동 164-40 드림빌리지 앞 사거리)","자치01-54(00) (후암동 164-40 드림빌리지 앞 사거리)","37.5468","126.9749","1","2022-12-01"
"용산구","자치01-54(A1) (후암동 156-5 다가구주택 삼거리)","자치01-54(A1) (후암동 156-5 다가구주택 삼거리)","37.5473","126.9752","1","2022-12-01"
"용산구","자치01-55(00) 20-2차(후암동 406-48)","자치01-55(00) 20-2차(후암동 406-48)","37.5476","126.9842","1","2022-12-01"
"용산구","자치01-56(00) 20-2차(후암동 402-1 대호빌라 옆)","자치01-56(00) 20-2차(후암동 402-1 대호빌라 옆)","37.5483","126.9824","1","2022-12-01"
"용산구","자치01-56(A1) 20-1차(후암동 400-47)","자치01-56(A1) 20-1차(후암동 400-47)","37.5483","126.9829","1","2022-12-01"
"용산구","자치01-57(00) 20-2차(후암동 406-12)","자치01-57(00) 20-2차(후암동 406-12)","37.5475","126.9833","1","2022-12-01"
"용산구","자치01-57(A1) 20-2차(두텁바위로 47길 33)","자치01-57(A1) 20-2차(두텁바위로 47길 33)","37.5477","126.9834","1","2022-12-01"
"용산구","자치01-58(00) 21-2차(후암동 264-7 무지개음악원)","자치01-58(00) 21-2차(후암동 264-7 무지개음악원)","37.5469","126.9805","1","2022-12-01"
"용산구","자치01-59(00) 21-2차(후암동 409-125  다세대주택 옆)","자치01-59(00) 21-2차(후암동 409-125  다세대주택 옆)","37.5467","126.9830","1","2022-12-01"
"용산구","자치01-59(A1) 21-2차(후암동 409-125  다세대주택 옆)","자치01-59(A1) 21-2차(후암동 409-125  다세대주택 옆)","37.5467","126.9831","1","2022-12-01"
"용산구","자치01-60(00) 21-2차(후암동 30-68 우방힐하우스 앞)","자치01-60(00) 21-2차(후암동 30-68 우방힐하우스 앞)","37.5520","126.9791","1","2022-12-01"
"용산구","자치01-60(A1) 21-2차(후암동 30-144 삼원주택 앞)","자치01-60(A1) 21-2차(후암동 30-144 삼원주택 앞)","37.5518","126.9793","1","2022-12-01"
"용산구","자치01-61(00) 21-2차(후암동 143-4 힐탑빌리지 앞)","자치01-61(00) 21-2차(후암동 143-4 힐탑빌리지 앞)","37.5488","126.9745","1","2022-12-01"
"용산구","자치01-62(00) 21-2차(후암동 105-48)","자치01-62(00) 21-2차(후암동 105-48)","37.5484","126.9772","1","2022-12-01"
"용산구","자치01-63(00) 21-2차(후암동 297-4 스카이빌라 앞)","자치01-63(00) 21-2차(후암동 297-4 스카이빌라 앞)","37.5484","126.9798","1","2022-12-01"
"용산구","자치01-64(00) 21-2차(후암동 445-11 루터서점 앞)","자치01-64(00) 21-2차(후암동 445-11 루터서점 앞)","37.5536","126.9765","1","2022-12-01"
"용산구","자치02-01(00) (용산동2가 1-1652 삼거리)","자치02-01(00) (용산동2가 1-1652 삼거리)","37.5458","126.9831","1","2022-12-01"
"용산구","자치02-02(00) (용산동2가 1-645 담벼락 옆)","자치02-02(00) (용산동2가 1-645 담벼락 옆)","37.5459","126.9844","1","2022-12-01"
"용산구","자치02-03(00) (용산동2가 5-1657 보성여고 정문 옆 골목)","자치02-03(00) (용산동2가 5-1657 보성여고 정문 옆 골목)","37.5426","126.9839","1","2022-12-01"
"용산구","자치02-04(00) (용산동2가 5-1927 중앙빌라 앞)","자치02-04(00) (용산동2가 5-1927 중앙빌라 앞)","37.5457","126.9884","1","2022-12-01"
"용산구","자치02-05(00) 20-2차(용산동2가 5-1457 용암초교 후문 앞)","자치02-05(00) 20-2차(용산동2가 5-1457 용암초교 후문 앞)","37.5454","126.9889","1","2022-12-01"
"용산구","자치02-06(00) (효창동 136-2 효창파크KCC 스위첸아파트 뒤)","자치02-06(00) (효창동 136-2 효창파크KCC 스위첸아파트 뒤)","37.5407","126.9606","1","2022-12-01"
"용산구","자치02-07(00) 20-2차(용산동2가 23-1 나무있는 집 대문 옆)","자치02-07(00) 20-2차(용산동2가 23-1 나무있는 집 대문 옆)","37.5448","126.9870","1","2022-12-01"
"용산구","자치02-08(00) 20-2차(용산동2가 31-2 코너)","자치02-08(00) 20-2차(용산동2가 31-2 코너)","37.5442","126.9858","1","2022-12-01"
"용산구","자치02-09(00) (용산동2가 35-6 계단 옆)","자치02-09(00) (용산동2가 35-6 계단 옆)","37.5425","126.9857","1","2022-12-01"
"용산구","자치02-10(00) (용산동2가 35-28 충남슈퍼 맞은편)","자치02-10(00) (용산동2가 35-28 충남슈퍼 맞은편)","37.5431","126.9860","1","2022-12-01"
"용산구","자치02-11(00) (용산동2가 43-7 서전빌라)","자치02-11(00) (용산동2가 43-7 서전빌라)","37.5415","126.9860","1","2022-12-01"
"용산구","자치02-11(A1) (신흥로5길 14)","자치02-11(A1) (신흥로5길 14)","37.5417","126.9865","1","2022-12-01"
"용산구","자치02-12(00) (용산동2가 39-10 새마을금고 용암지점 맞은 편)","자치02-12(00) (용산동2가 39-10 새마을금고 용암지점 맞은 편)","37.5423","126.9867","1","2022-12-01"
"용산구","자치02-13(00) (용산동2가 20-17 주택 코너 삼거리)","자치02-13(00) (용산동2가 20-17 주택 코너 삼거리)","37.5447","126.9860","1","2022-12-01"
"용산구","자치02-14(00) 20-2차(용산동2가 5-1101 해방촌성당 앞 삼거리)","자치02-14(00) 20-2차(용산동2가 5-1101 해방촌성당 앞 삼거리)","37.5435","126.9842","1","2022-12-01"
"용산구","자치02-15(00) (용산동2가 43-21 주차장 앞 담벼락)","자치02-15(00) (용산동2가 43-21 주차장 앞 담벼락)","37.5412","126.9854","1","2022-12-01"
"용산구","자치02-15(A1) (신흥로3가길 34 진성슈퍼 옆)","자치02-15(A1) (신흥로3가길 34 진성슈퍼 옆)","37.5417","126.9848","1","2022-12-01"
"용산구","자치02-22(00) (용산동2가 1-1357)","자치02-22(00) (용산동2가 1-1357)","37.5440","126.9819","1","2022-12-01"
"용산구","자치02-23(00) (용산동2가 1-712 신흥교회 뒤쪽 거주자주차구역)","자치02-23(00) (용산동2가 1-712 신흥교회 뒤쪽 거주자주차구역)","37.5451","126.9830","1","2022-12-01"
"용산구","자치02-24(00) (용산동2가 32-1 출입문 옆 (해방교회 아래쪽))","자치02-24(00) (용산동2가 32-1 출입문 옆 (해방교회 아래쪽))","37.5437","126.9856","1","2022-12-01"
"용산구","자치02-25(00) (용산동2가 24-20 황제빌라 옆)","자치02-25(00) (용산동2가 24-20 황제빌라 옆)","37.5441","126.9874","1","2022-12-01"
"용산구","자치02-26(00) (용산동2가 5-212 주택가)","자치02-26(00) (용산동2가 5-212 주택가)","37.5453","126.9874","1","2022-12-01"
"용산구","자치02-27(00) (용산동2가 5-171 남산교회 옆 골목)","자치02-27(00) (용산동2가 5-171 남산교회 옆 골목)","37.5451","126.9873","1","2022-12-01"
"용산구","자치02-31(00) 20-3차(용산동2가 5-1519 뒷편 어린이보호표지판 위)","자치02-31(00) 20-3차(용산동2가 5-1519 뒷편 어린이보호표지판 위)","37.5437","126.9891","1","2022-12-01"
"용산구","자치02-32(00) (용산동2가 5-1186 보성여고 인근 골목 코너)","자치02-32(00) (용산동2가 5-1186 보성여고 인근 골목 코너)","37.5440","126.9837","1","2022-12-01"
"용산구","자치02-32(A1) (신흥로23길 8)","자치02-32(A1) (신흥로23길 8)","37.5443","126.9838","1","2022-12-01"
"용산구","자치02-32(B1) (신흥로25길 18-4 코너)","자치02-32(B1) (신흥로25길 18-4 코너)","37.5439","126.9836","1","2022-12-01"
"용산구","자치02-33(00) (용산동 47-3 거주자우선주차구역 앞)","자치02-33(00) (용산동 47-3 거주자우선주차구역 앞)","37.5429","126.9879","1","2022-12-01"
"용산구","자치02-34(00) (용산동2가 31 해방교회 앞)","자치02-34(00) (용산동2가 31 해방교회 앞)","37.5444","126.9848","1","2022-12-01"
"용산구","자치02-34(A1) 21-2차(용산동2가 19-13 새마을마트 앞)","자치02-34(A1) 21-2차(용산동2가 19-13 새마을마트 앞)","37.5447","126.9852","1","2022-12-01"
"용산구","자치02-36(00) 20-2차(용산동2가 11-17 소월길 출입계단 앞)","자치02-36(00) 20-2차(용산동2가 11-17 소월길 출입계단 앞)","37.5458","126.9863","1","2022-12-01"
"용산구","자치02-37(00) 20-2차(용산동2가 10-16 주택 앞)","자치02-37(00) 20-2차(용산동2가 10-16 주택 앞)","37.5444","126.9814","1","2022-12-01"
"용산구","자치02-37(A1) 20-2차(신흥로 127-1 랜드마크 부동산 사이)","자치02-37(A1) 20-2차(신흥로 127-1 랜드마크 부동산 사이)","37.5445","126.9818","1","2022-12-01"
"용산구","자치02-38(00) 21-1차(용산2가동 1-1485 해오름빌 정문 앞)","자치02-38(00) 21-1차(용산2가동 1-1485 해오름빌 정문 앞)","37.5454","126.9841","1","2022-12-01"
"용산구","자치02-40(00) (용산동2가 1-1695 대박부동산 코너)","자치02-40(00) (용산동2가 1-1695 대박부동산 코너)","37.5462","126.9848","1","2022-12-01"
"용산구","자치02-40(A1) (신흥로20길 22)","자치02-40(A1) (신흥로20길 22)","37.5465","126.9845","1","2022-12-01"
"용산구","자치02-41(00) (신흥로11길 7(용산동2가 37) 이레쉐르빌 앞 삼거리)","자치02-41(00) (신흥로11길 7(용산동2가 37) 이레쉐르빌 앞 삼거리)","37.5433","126.9872","1","2022-12-01"
"용산구","자치02-42(00) (용산동2가 1-414 대지부동산 뒷골목)","자치02-42(00) (용산동2가 1-414 대지부동산 뒷골목)","37.5455","126.9820","1","2022-12-01"
"용산구","자치02-42(A1) (신흥로32길 4-3 앞)","자치02-42(A1) (신흥로32길 4-3 앞)","37.5456","126.9820","1","2022-12-01"
"용산구","자치02-42(B1) (신흥로34길 5-2)","자치02-42(B1) (신흥로34길 5-2)","37.5457","126.9821","1","2022-12-01"
"용산구","자치07-22(C1) (효창동 3-117)","자치07-22(C1) (효창동 3-117)","37.5432","126.9587","1","2022-12-01"
"용산구","자치02-42(C1) (용산동2가 1-1521 보장빌라 앞)","자치02-42(C1) (용산동2가 1-1521 보장빌라 앞)","37.5457","126.9822","1","2022-12-01"
"용산구","자치02-43(00) (용산동2가 5-1807 3호터널 옆 담)","자치02-43(00) (용산동2가 5-1807 3호터널 옆 담)","37.5442","126.9882","1","2022-12-01"
"용산구","자치02-44(00) (용산동2가 43-1 삼성빌 앞) (예전자치9-28)","자치02-44(00) (용산동2가 43-1 삼성빌 앞) (예전자치9-28)","37.5415","126.9853","1","2022-12-01"
"용산구","자치02-44(A1) (신흥로3나길 5)","자치02-44(A1) (신흥로3나길 5)","37.5415","126.9853","1","2022-12-01"
"용산구","자치02-45(00) (용산동2가 1-715)","자치02-45(00) (용산동2가 1-715)","37.5451","126.9823","1","2022-12-01"
"용산구","자치02-48(00) (용산동2가 1-1419 108계단 아래쪽)","자치02-48(00) (용산동2가 1-1419 108계단 아래쪽)","37.5464","126.9819","1","2022-12-01"
"용산구","자치02-49(00) (용산동2가 1-338 108계단 위쪽)","자치02-49(00) (용산동2가 1-338 108계단 위쪽)","37.5462","126.9826","1","2022-12-01"
"용산구","자치02-49(A1) (신흥로36가길 1-2)","자치02-49(A1) (신흥로36가길 1-2)","37.5464","126.9822","1","2022-12-01"
"용산구","자치02-50(00) (용산동2가 34-30)","자치02-50(00) (용산동2가 34-30)","37.5430","126.9848","1","2022-12-01"
"용산구","자치02-51(00) (용산동2가 1-136)","자치02-51(00) (용산동2가 1-136)","37.5446","126.9833","1","2022-12-01"
"용산구","자치02-51(A1) 21-2차(용산동2가 1-1935 정일아트빌 앞)","자치02-51(A1) 21-2차(용산동2가 1-1935 정일아트빌 앞)","37.5448","126.9834","1","2022-12-01"
"용산구","자치02-52(00) (용산동2가 1-130)","자치02-52(00) (용산동2가 1-130)","37.5441","126.9824","1","2022-12-01"
"용산구","자치02-53(00) (용산동2가 1-1349)","자치02-53(00) (용산동2가 1-1349)","37.5443","126.9823","1","2022-12-01"
"용산구","자치02-54(00) 20-2차(용산2가동 22-16 전주 옆)","자치02-54(00) 20-2차(용산2가동 22-16 전주 옆)","37.5438","126.9868","1","2022-12-01"
"용산구","자치02-55(00) 20-2차(용산동2가 1-173 반석빌라 옆)","자치02-55(00) 20-2차(용산동2가 1-173 반석빌라 옆)","37.5464","126.9838","1","2022-12-01"
"용산구","자치02-55(A1) 20-1차(후암동 409-66)","자치02-55(A1) 20-1차(후암동 409-66)","37.5468","126.9837","1","2022-12-01"
"용산구","자치02-56(00) 20-3차(용산동2가 24-8 황제빌라 뒤쪽 골목)","자치02-56(00) 20-3차(용산동2가 24-8 황제빌라 뒤쪽 골목)","37.5441","126.9879","1","2022-12-01"
"용산구","자치02-57(00) 20-3차(용산동2가 1-219 대영빌라 사거리)","자치02-57(00) 20-3차(용산동2가 1-219 대영빌라 사거리)","37.5456","126.9837","1","2022-12-01"
"용산구","자치02-58(00) 21-2차(용산동2가 5-22 다세대주택 앞)","자치02-58(00) 21-2차(용산동2가 5-22 다세대주택 앞)","37.5416","126.9845","1","2022-12-01"
"용산구","자치03-01(00) 20-2차(갈월동 6-11 대동슈퍼 앞)","자치03-01(00) 20-2차(갈월동 6-11 대동슈퍼 앞)","37.5492","126.9732","1","2022-12-01"
"용산구","자치03-01(A1) (한강대로100길 11 대로에서 들어오는길)","자치03-01(A1) (한강대로100길 11 대로에서 들어오는길)","37.5492","126.9727","1","2022-12-01"
"용산구","자치03-01(B1) (한강대로100길 13 대로에서 들어오는길)","자치03-01(B1) (한강대로100길 13 대로에서 들어오는길)","37.5490","126.9726","1","2022-12-01"
"용산구","자치03-01(C1) (동자동 22-72)","자치03-01(C1) (동자동 22-72)","37.5489","126.9741","1","2022-12-01"
"용산구","자치03-01(D1) 20-2차(한강대로102가길 14 현대슈퍼 앞)","자치03-01(D1) 20-2차(한강대로102가길 14 현대슈퍼 앞)","37.5489","126.9731","1","2022-12-01"
"용산구","자치03-02(A1) (한강대로98가길 34)","자치03-02(A1) (한강대로98가길 34)","37.5472","126.9742","1","2022-12-01"
"용산구","자치03-03(00) (갈월동 7-72 아로마빌리지 옆)","자치03-03(00) (갈월동 7-72 아로마빌리지 옆)","37.5470","126.9735","1","2022-12-01"
"용산구","자치03-04(00) (갈월동 56-2 일심빌딩 뒷골목 코너 으뜸부동산 옆)","자치03-04(00) (갈월동 56-2 일심빌딩 뒷골목 코너 으뜸부동산 옆)","37.5455","126.9734","1","2022-12-01"
"용산구","자치03-04(A1) (갈월동 52-6)","자치03-04(A1) (갈월동 52-6)","37.5458","126.9740","1","2022-12-01"
"용산구","자치03-04(B1) (갈월동 50-4)","자치03-04(B1) (갈월동 50-4)","37.5461","126.9743","1","2022-12-01"
"용산구","자치03-05(00) (동자동 17-28 새꿈공원 앞)","자치03-05(00) (동자동 17-28 새꿈공원 앞)","37.5526","126.9739","1","2022-12-01"
"용산구","자치03-05(A1) (후암로57길 17-9 해뜨는집 건너편)","자치03-05(A1) (후암로57길 17-9 해뜨는집 건너편)","37.5526","126.9745","1","2022-12-01"
"용산구","자치03-06(00) (동자동 35-142 미니마트 앞)","자치03-06(00) (동자동 35-142 미니마트 앞)","37.5512","126.9740","1","2022-12-01"
"용산구","자치03-07(00) 21-1차(동자동 7-29 삼익빌라 앞)","자치03-07(00) 21-1차(동자동 7-29 삼익빌라 앞)","37.5525","126.9753","1","2022-12-01"
"용산구","자치03-07(A1) 21-1차(후암로57길 17-32)","자치03-07(A1) 21-1차(후암로57길 17-32)","37.5524","126.9751","1","2022-12-01"
"용산구","자치03-07(B1) 21-1차(후암로49길 28)","자치03-07(B1) 21-1차(후암로49길 28)","37.5527","126.9750","1","2022-12-01"
"용산구","자치03-08(00) (동자동 19-87 계단 위)","자치03-08(00) (동자동 19-87 계단 위)","37.5517","126.9748","1","2022-12-01"
"용산구","자치03-08(A1) (한강대로104마길 27)","자치03-08(A1) (한강대로104마길 27)","37.5511","126.9748","1","2022-12-01"
"용산구","자치03-08(B1) (동자동 19-2 동암교회 앞)","자치03-08(B1) (동자동 19-2 동암교회 앞)","37.5506","126.9753","1","2022-12-01"
"용산구","자치03-10(00) (동자동 21-6 후암서부제일아파트 뒤 외골목)","자치03-10(00) (동자동 21-6 후암서부제일아파트 뒤 외골목)","37.5497","126.9748","1","2022-12-01"
"용산구","자치03-11(00) (갈월동 8-9 공중전화기 옆)","자치03-11(00) (갈월동 8-9 공중전화기 옆)","37.5476","126.9725","1","2022-12-01"
"용산구","자치03-12(00) (동자동 6-3 쪽방지역 내 덕성장 앞)","자치03-12(00) (동자동 6-3 쪽방지역 내 덕성장 앞)","37.5529","126.9752","1","2022-12-01"
"용산구","자치03-18(00) 21-1차(남영동 95-2)","자치03-18(00) 21-1차(남영동 95-2)","37.5426","126.9736","1","2022-12-01"
"용산구","자치03-19(00) 21-1차(갈월동 93-55 다이소 앞)","자치03-19(00) 21-1차(갈월동 93-55 다이소 앞)","37.5419","126.9719","1","2022-12-01"
"용산구","자치03-19(A1) (갈월동 95-2 남영역 굴다리 양방향)","자치03-19(A1) (갈월동 95-2 남영역 굴다리 양방향)","37.5417","126.9714","1","2022-12-01"
"용산구","자치03-19(B1) (갈월동 95-2 남영역 굴다리 양방향)","자치03-19(B1) (갈월동 95-2 남영역 굴다리 양방향)","37.5417","126.9714","1","2022-12-01"
"용산구","자치03-20(00) (갈월동34-13 주차장 앞)","자치03-20(00) (갈월동34-13 주차장 앞)","37.5462","126.9732","1","2022-12-01"
"용산구","자치03-20(A1) (한강대로92길 14(갈월동 14-72) 골목길)","자치03-20(A1) (한강대로92길 14(갈월동 14-72) 골목길)","37.5459","126.9728","1","2022-12-01"
"용산구","자치03-21(00) (한강대로84길 14 미성회관 옆 사거리)","자치03-21(00) (한강대로84길 14 미성회관 옆 사거리)","37.5436","126.9733","1","2022-12-01"
"용산구","자치03-21(A1) (한강대로88길 11)","자치03-21(A1) (한강대로88길 11)","37.5445","126.9730","1","2022-12-01"
"용산구","자치03-23(00) (갈월동 7-68)","자치03-23(00) (갈월동 7-68)","37.5468","126.9730","1","2022-12-01"
"용산구","자치03-24(00) 21-2차(남영동 108 다세대주택 앞)","자치03-24(00) 21-2차(남영동 108 다세대주택 앞)","37.5417","126.9743","1","2022-12-01"
"용산구","자치03-25(00) 21-2차(갈월동 93-1 돈가스창고 앞)","자치03-25(00) 21-2차(갈월동 93-1 돈가스창고 앞)","37.5430","126.9717","1","2022-12-01"
"용산구","자치03-26(00) 21-2차(동자동 19-61 보람빌라 앞 옹벽)","자치03-26(00) 21-2차(동자동 19-61 보람빌라 앞 옹벽)","37.5520","126.9751","1","2022-12-01"
"용산구","자치04-01(00) (서계동 33-265 청파중앙교회 옆)","자치04-01(00) (서계동 33-265 청파중앙교회 옆)","37.5515","126.9676","1","2022-12-01"
"용산구","자치04-02(00) (서계동 226-3 청파어린이공원 입구)","자치04-02(00) (서계동 226-3 청파어린이공원 입구)","37.5534","126.9686","1","2022-12-01"
"용산구","자치04-03(00) 20-2차(서계동 234-42 제일빌딩 옆)","자치04-03(00) 20-2차(서계동 234-42 제일빌딩 옆)","37.5532","126.9663","1","2022-12-01"
"용산구","자치04-04(00) (청파동1가 1-18 희림빌라 옆)","자치04-04(00) (청파동1가 1-18 희림빌라 옆)","37.5497","126.9673","1","2022-12-01"
"용산구","자치04-05(00) (청파동1가 97-13 한마음빌라 옆)","자치04-05(00) (청파동1가 97-13 한마음빌라 옆)","37.5480","126.9670","1","2022-12-01"
"용산구","자치04-05(A1) (청파동1가 97-16)","자치04-05(A1) (청파동1가 97-16)","37.5474","126.9669","1","2022-12-01"
"용산구","자치04-06(00) 20-2차(청파동1가 121-3 천리교분회 정문 앞)","자치04-06(00) 20-2차(청파동1가 121-3 천리교분회 정문 앞)","37.5485","126.9684","1","2022-12-01"
"용산구","자치04-07(00) (청파동1가 205-5 명성부동산 맞은 편)","자치04-07(00) (청파동1가 205-5 명성부동산 맞은 편)","37.5484","126.9635","1","2022-12-01"
"용산구","자치04-08(00) (청파동2가 1-146 숙대후문 옆 횡단보도)","자치04-08(00) (청파동2가 1-146 숙대후문 옆 횡단보도)","37.5464","126.9634","1","2022-12-01"
"용산구","자치04-09(00) (청파동2가 10-33 휴타임가게 옆)","자치04-09(00) (청파동2가 10-33 휴타임가게 옆)","37.5469","126.9679","1","2022-12-01"
"용산구","자치04-09(A1) 19-1차(청파동1가 102-9)","자치04-09(A1) 19-1차(청파동1가 102-9)","37.5469","126.9690","1","2022-12-01"
"용산구","자치04-09(B1) 20-1차(청파동1가 190)","자치04-09(B1) 20-1차(청파동1가 190)","37.5468","126.9698","1","2022-12-01"
"용산구","자치04-10(00) 20-2차(청파동3가 111-38 대운부동산 앞)","자치04-10(00) 20-2차(청파동3가 111-38 대운부동산 앞)","37.5448","126.9669","1","2022-12-01"
"용산구","자치04-11(00) (청파동3가 108-30 동네미니슈퍼 앞)","자치04-11(00) (청파동3가 108-30 동네미니슈퍼 앞)","37.5439","126.9678","1","2022-12-01"
"용산구","자치04-12(00) (청파동3가 140-10  천주교 청파동성당 앞)","자치04-12(00) (청파동3가 140-10  천주교 청파동성당 앞)","37.5435","126.9650","1","2022-12-01"
"용산구","자치04-13(00) (청파동3가 105-4 구.청파2동사무소 앞)","자치04-13(00) (청파동3가 105-4 구.청파2동사무소 앞)","37.5436","126.9698","1","2022-12-01"
"용산구","자치04-14(00) (청파동2가 8-3 골목길 계단 앞)","자치04-14(00) (청파동2가 8-3 골목길 계단 앞)","37.5465","126.9671","1","2022-12-01"
"용산구","자치04-14(A1) (효창원로86길 68)","자치04-14(A1) (효창원로86길 68)","37.5465","126.9668","1","2022-12-01"
"용산구","자치04-15(00) (구.자치9-16 청파동2가 53-17 숙대창업관 뒤)","자치04-15(00) (구.자치9-16 청파동2가 53-17 숙대창업관 뒤)","37.5454","126.9655","1","2022-12-01"
"용산구","자치04-17(00) (청파동3가 118-78 빌라건물등 주변)","자치04-17(00) (청파동3가 118-78 빌라건물등 주변)","37.5430","126.9676","1","2022-12-01"
"용산구","자치04-18(00) 21-1차(청파동3가 118-48 델포이빌딩 옆)","자치04-18(00) 21-1차(청파동3가 118-48 델포이빌딩 옆)","37.5438","126.9664","1","2022-12-01"
"용산구","자치04-18(A1) (청파로43길 71)","자치04-18(A1) (청파로43길 71)","37.5441","126.9666","1","2022-12-01"
"용산구","자치04-19(00) (청파동1가 1-121 가음빌라 아래 골목)","자치04-19(00) (청파동1가 1-121 가음빌라 아래 골목)","37.5506","126.9669","1","2022-12-01"
"용산구","자치04-19(A1) (청파로71가길 29)","자치04-19(A1) (청파로71가길 29)","37.5501","126.9669","1","2022-12-01"
"용산구","자치04-20(00) (서계동 242-20 보현의집 옆 공간)","자치04-20(00) (서계동 242-20 보현의집 옆 공간)","37.5526","126.9642","1","2022-12-01"
"용산구","자치04-21(00) (청파동2가 33-18 골목길)","자치04-21(00) (청파동2가 33-18 골목길)","37.5458","126.9694","1","2022-12-01"
"용산구","자치04-22(00) (청파동1가 1-55 동진빌라 가동 입구)","자치04-22(00) (청파동1가 1-55 동진빌라 가동 입구)","37.5510","126.9664","1","2022-12-01"
"용산구","자치04-23(00) (청파동2가 1-34 맞은편 (청파초교 돌담))","자치04-23(00) (청파동2가 1-34 맞은편 (청파초교 돌담))","37.5473","126.9650","1","2022-12-01"
"용산구","자치04-24(00) (청파동3가 121-39 미문교회 입구)","자치04-24(00) (청파동3가 121-39 미문교회 입구)","37.5427","126.9694","1","2022-12-01"
"용산구","자치04-25(00) (서계동 238-15 야후공인중계사 앞)","자치04-25(00) (서계동 238-15 야후공인중계사 앞)","37.5526","126.9658","1","2022-12-01"
"용산구","자치04-25(A1) (청파로85길 62)","자치04-25(A1) (청파로85길 62)","37.5525","126.9656","1","2022-12-01"
"용산구","자치04-30(00) (청파동2가 1-180 비상소화장치옆)","자치04-30(00) (청파동2가 1-180 비상소화장치옆)","37.5472","126.9661","1","2022-12-01"
"용산구","자치04-30(A1) (청파동2가 1-61)","자치04-30(A1) (청파동2가 1-61)","37.5477","126.9662","1","2022-12-01"
"용산구","자치04-31(00) (서계동 259-2 서계1 경로당 앞)","자치04-31(00) (서계동 259-2 서계1 경로당 앞)","37.5507","126.9641","1","2022-12-01"
"용산구","자치04-32(00) (청파동3가 118-155 주택담장 뒤 전신주)","자치04-32(00) (청파동3가 118-155 주택담장 뒤 전신주)","37.5433","126.9671","1","2022-12-01"
"용산구","자치04-37(00) (청파동1가 1-12 주차장 앞)","자치04-37(00) (청파동1가 1-12 주차장 앞)","37.5494","126.9677","1","2022-12-01"
"용산구","자치04-37(A1) (청파로71나길 22)","자치04-37(A1) (청파로71나길 22)","37.5486","126.9677","1","2022-12-01"
"용산구","자치04-38(00) 20-2차(청파동3가 121-15 주택 앞)","자치04-38(00) 20-2차(청파동3가 121-15 주택 앞)","37.5434","126.9686","1","2022-12-01"
"용산구","자치04-38(A1) (청파로43길 36)","자치04-38(A1) (청파로43길 36)","37.5437","126.9686","1","2022-12-01"
"용산구","자치04-39(00) (서계동 252-11 만리중앙교회 앞)","자치04-39(00) (서계동 252-11 만리중앙교회 앞)","37.5504","126.9650","1","2022-12-01"
"용산구","자치04-39(A1) (효창원로104길 37-1)","자치04-39(A1) (효창원로104길 37-1)","37.5504","126.9658","1","2022-12-01"
"용산구","자치04-40(00) 21-1차(청파동2가 36-31 청파어린이집 앞)","자치04-40(00) 21-1차(청파동2가 36-31 청파어린이집 앞)","37.5453","126.9692","1","2022-12-01"
"용산구","자치04-41(00) 21-1차(청파동1가 1-152 청파이발관 앞 삼거리)","자치04-41(00) 21-1차(청파동1가 1-152 청파이발관 앞 삼거리)","37.5495","126.9642","1","2022-12-01"
"용산구","자치04-41(A1) (효창원로98길 26)","자치04-41(A1) (효창원로98길 26)","37.5490","126.9647","1","2022-12-01"
"용산구","자치04-41(B1) (효창원로98길 28-1)","자치04-41(B1) (효창원로98길 28-1)","37.5489","126.9648","1","2022-12-01"
"용산구","자치04-44(00) 21-1차(서계동 258-8)","자치04-44(00) 21-1차(서계동 258-8)","37.5518","126.9643","1","2022-12-01"
"용산구","자치04-45(00) 21-1차(청파로93길 14(서계동 223-33))","자치04-45(00) 21-1차(청파로93길 14(서계동 223-33))","37.5543","126.9681","1","2022-12-01"
"용산구","자치04-45(A1) 21-1차(청파로93길 6)","자치04-45(A1) 21-1차(청파로93길 6)","37.5543","126.9686","1","2022-12-01"
"용산구","자치04-46(00) 21-1차(서계동 33-57)","자치04-46(00) 21-1차(서계동 33-57)","37.5521","126.9680","1","2022-12-01"
"용산구","자치04-46(A1) (청파로83길 23)","자치04-46(A1) (청파로83길 23)","37.5520","126.9678","1","2022-12-01"
"용산구","자치04-47(00) (서계동 251-3 우진슈퍼 윗쪽 삼거리)","자치04-47(00) (서계동 251-3 우진슈퍼 윗쪽 삼거리)","37.5515","126.9653","1","2022-12-01"
"용산구","자치04-47(A1) 19-1차(서계동 251-19)","자치04-47(A1) 19-1차(서계동 251-19)","37.5513","126.9655","1","2022-12-01"
"용산구","자치04-48(00) (청파동1가 91-53 정쉐르빌 코너)","자치04-48(00) (청파동1가 91-53 정쉐르빌 코너)","37.5492","126.9662","1","2022-12-01"
"용산구","자치04-51(00) (서계동 33-114 골목 내 삼거리)","자치04-51(00) (서계동 33-114 골목 내 삼거리)","37.5523","126.9673","1","2022-12-01"
"용산구","자치04-53(00) (청파로73길 92 (서계동 33-37))","자치04-53(00) (청파로73길 92 (서계동 33-37))","37.5520","126.9660","1","2022-12-01"
"용산구","자치04-53(A1) (청파로73길 91-2)","자치04-53(A1) (청파로73길 91-2)","37.5520","126.9660","1","2022-12-01"
"용산구","자치04-54(00) (청파로47나길 68 공중전화기 옆)","자치04-54(00) (청파로47나길 68 공중전화기 옆)","37.5478","126.9682","1","2022-12-01"
"용산구","자치04-54(A1) (청파로63가길 17 코너)","자치04-54(A1) (청파로63가길 17 코너)","37.5476","126.9686","1","2022-12-01"
"용산구","자치04-55(00) (청파로77가길 4)","자치04-55(00) (청파로77가길 4)","37.5514","126.9683","1","2022-12-01"
"용산구","자치04-55(B1) (청파로77길 13)","자치04-55(B1) (청파로77길 13)","37.5511","126.9689","1","2022-12-01"
"용산구","자치04-56(00) (효창원로104나길 9)","자치04-56(00) (효창원로104나길 9)","37.5510","126.9647","1","2022-12-01"
"용산구","자치04-57(00) (효창원로94다길 11)","자치04-57(00) (효창원로94다길 11)","37.5486","126.9645","1","2022-12-01"
"용산구","자치04-58(00) (청파로71길 23 (청파동1가 58-18))","자치04-58(00) (청파로71길 23 (청파동1가 58-18))","37.5495","126.9685","1","2022-12-01"
"용산구","자치04-58(A1) (청파동1가 58)","자치04-58(A1) (청파동1가 58)","37.5494","126.9692","1","2022-12-01"
"용산구","자치04-59(00) (청파동3가 10-3 청파치안센터 옆)","자치04-59(00) (청파동3가 10-3 청파치안센터 옆)","37.5441","126.9709","1","2022-12-01"
"용산구","자치04-59(A1) (갈월동 69-116 굴다리)","자치04-59(A1) (갈월동 69-116 굴다리)","37.5441","126.9711","1","2022-12-01"
"용산구","자치04-60(00) (청파동2가 120-64 갈월동 지하차도)","자치04-60(00) (청파동2가 120-64 갈월동 지하차도)","37.5450","126.9708","1","2022-12-01"
"용산구","자치04-61(00) (청파동1가 180-6 청파동 쌍굴다리)","자치04-61(00) (청파동1가 180-6 청파동 쌍굴다리)","37.5486","126.9708","1","2022-12-01"
"용산구","자치04-61(A1) (청파로 330-22)","자치04-61(A1) (청파로 330-22)","37.5491","126.9705","1","2022-12-01"
"용산구","자치04-62(00) (청파로77길 35 앞)","자치04-62(00) (청파로77길 35 앞)","37.5518","126.9683","1","2022-12-01"
"용산구","자치04-63(00) (서계동 45-2 국립극단 뒷골목)","자치04-63(00) (서계동 45-2 국립극단 뒷골목)","37.5527","126.9679","1","2022-12-01"
"용산구","자치04-63(A1) (청파로85가길 2 앞 삼거리)","자치04-63(A1) (청파로85가길 2 앞 삼거리)","37.5526","126.9682","1","2022-12-01"
"용산구","자치04-66(00) (청파동2가 104-12)","자치04-66(00) (청파동2가 104-12)","37.5462","126.9696","1","2022-12-01"
"용산구","자치04-66(A1) (청파로53길 16)","자치04-66(A1) (청파로53길 16)","37.5462","126.9692","1","2022-12-01"
"용산구","자치04-68(00) (청파로 47나길 45-33)","자치04-68(00) (청파로 47나길 45-33)","37.5477","126.9677","1","2022-12-01"
"용산구","자치04-68(A1) (청파동1가 98-37)","자치04-68(A1) (청파동1가 98-37)","37.5474","126.9674","1","2022-12-01"
"용산구","자치04-69(00) 20-3차(청파동1가 89-36 다홍빌라 맞은편)","자치04-69(00) 20-3차(청파동1가 89-36 다홍빌라 맞은편)","37.5484","126.9665","1","2022-12-01"
"용산구","자치04-69(A1) 20-3차(청파동1가 89-35)","자치04-69(A1) 20-3차(청파동1가 89-35)","37.5486","126.9665","1","2022-12-01"
"용산구","자치04-70(00) 21-2치(청파동2가 40-10 차니헤어 앞)","자치04-70(00) 21-2치(청파동2가 40-10 차니헤어 앞)","37.5455","126.9677","1","2022-12-01"
"용산구","자치04-71(00) 21-2치(청파동3가 132-126 백송어린이집 후문 밑)","자치04-71(00) 21-2치(청파동3가 132-126 백송어린이집 후문 밑)","37.5439","126.9636","1","2022-12-01"
"용산구","자치04-72(00) 21-2치(서계동 230-5 모아미니슈퍼 (맞)","자치04-72(00) 21-2치(서계동 230-5 모아미니슈퍼 (맞)","37.5539","126.9670","1","2022-12-01"
"용산구","자치04-73(00) 21-2차(서계동 223-25 다세대주택 앞)","자치04-73(00) 21-2차(서계동 223-25 다세대주택 앞)","37.5546","126.9682","1","2022-12-01"
"용산구","자치04-73(A1) 21-2차(서계동 219-30 다세대주택 앞)","자치04-73(A1) 21-2차(서계동 219-30 다세대주택 앞)","37.5546","126.9686","1","2022-12-01"
"용산구","자치04-74(00) 21-2차(서계동 251-42 다세대주택 앞)","자치04-74(00) 21-2차(서계동 251-42 다세대주택 앞)","37.5508","126.9655","1","2022-12-01"
"용산구","자치05-01(00) (원효로1가 1-1 아세아항공전문학교 앞)","자치05-01(00) (원효로1가 1-1 아세아항공전문학교 앞)","37.5420","126.9689","1","2022-12-01"
"용산구","자치05-01(A1) (원효로97길 3 나래분식 앞)","자치05-01(A1) (원효로97길 3 나래분식 앞)","37.5416","126.9701","1","2022-12-01"
"용산구","자치05-02(00) (원효로1가 21-1 현대미용실 앞)","자치05-02(00) (원효로1가 21-1 현대미용실 앞)","37.5396","126.9649","1","2022-12-01"
"용산구","자치05-03(00) 20-2차(신계동 35-11 남동전기 앞)","자치05-03(00) 20-2차(신계동 35-11 남동전기 앞)","37.5343","126.9622","1","2022-12-01"
"용산구","자치05-03(A1) 20-2차(원효로54길 22)","자치05-03(A1) 20-2차(원효로54길 22)","37.5347","126.9623","1","2022-12-01"
"용산구","자치05-04(00) 20-2차(신계동 25-8 유진약국 앞)","자치05-04(00) 20-2차(신계동 25-8 유진약국 앞)","37.5348","126.9637","1","2022-12-01"
"용산구","자치05-05(00) (원효로2가 61-9 공원 앞)","자치05-05(00) (원효로2가 61-9 공원 앞)","37.5348","126.9630","1","2022-12-01"
"용산구","자치05-06(00) (원효로2가 8-15 충남제일철강 옆 골목길)","자치05-06(00) (원효로2가 8-15 충남제일철강 옆 골목길)","37.5377","126.9646","1","2022-12-01"
"용산구","자치05-09(00) (원효로1가 17-101 동효그린빌라 옆)","자치05-09(00) (원효로1가 17-101 동효그린빌라 옆)","37.5405","126.9645","1","2022-12-01"
"용산구","자치05-09(A1) (원효로1가 17-11)","자치05-09(A1) (원효로1가 17-11)","37.5401","126.9642","1","2022-12-01"
"용산구","자치05-10(00) (원효로1가 26-20 무궁화빌라 앞)","자치05-10(00) (원효로1가 26-20 무궁화빌라 앞)","37.5391","126.9650","1","2022-12-01"
"용산구","자치05-11(00) (원효로1가 30-75 좁은 골목길)","자치05-11(00) (원효로1가 30-75 좁은 골목길)","37.5394","126.9659","1","2022-12-01"
"용산구","자치05-15(00) 20-3차(원효로2가 23-24 에이데이터코리아 앞)","자치05-15(00) 20-3차(원효로2가 23-24 에이데이터코리아 앞)","37.5359","126.9642","1","2022-12-01"
"용산구","자치05-16(00) (원효로1가 17-139 주택 전주 옆)","자치05-16(00) (원효로1가 17-139 주택 전주 옆)","37.5414","126.9657","1","2022-12-01"
"용산구","자치05-16(A1) (백범로79나길 13-2)","자치05-16(A1) (백범로79나길 13-2)","37.5409","126.9656","1","2022-12-01"
"용산구","자치05-17(00) 21-1차(원효로2가 8-4 경로당 앞)","자치05-17(00) 21-1차(원효로2가 8-4 경로당 앞)","37.5375","126.9639","1","2022-12-01"
"용산구","자치05-18(00) 21-1차(원효로77가길 19 (원효로1가 18-8))","자치05-18(00) 21-1차(원효로77가길 19 (원효로1가 18-8))","37.5403","126.9655","1","2022-12-01"
"용산구","자치05-18(A1) (원효로77가길 13)","자치05-18(A1) (원효로77가길 13)","37.5402","126.9652","1","2022-12-01"
"용산구","자치05-30(00) (원효로2가 80-15)","자치05-30(00) (원효로2가 80-15)","37.5364","126.9620","1","2022-12-01"
"용산구","자치05-33(00) (원효로2가 76-20 원효로의원 뒤)","자치05-33(00) (원효로2가 76-20 원효로의원 뒤)","37.5369","126.9635","1","2022-12-01"
"용산구","자치05-34(00) (원효로1가 43-6 열정도 쭈꾸미 앞)","자치05-34(00) (원효로1가 43-6 열정도 쭈꾸미 앞)","37.5392","126.9690","1","2022-12-01"
"용산구","자치05-34(A1) (원효로84길 21)","자치05-34(A1) (원효로84길 21)","37.5389","126.9693","1","2022-12-01"
"용산구","자치05-36(00) 20-2차(신계동 3-4 E편한세상)","자치05-36(00) 20-2차(신계동 3-4 E편한세상)","37.5344","126.9677","1","2022-12-01"
"용산구","자치05-37(00) 20-3차(원효로1가 43-12 해님공원 옆)","자치05-37(00) 20-3차(원효로1가 43-12 해님공원 옆)","37.5394","126.9701","1","2022-12-01"
"용산구","자치05-38(00) 20-3차(원효로1가 29-6 행운빌라)","자치05-38(00) 20-3차(원효로1가 29-6 행운빌라)","37.5395","126.9665","1","2022-12-01"
"용산구","자치05-38(A1) 20-3차(원효로1가 29-6 행운빌라)","자치05-38(A1) 20-3차(원효로1가 29-6 행운빌라)","37.5395","126.9664","1","2022-12-01"
"용산구","자치05-38(B1) 20-3차(원효로1가 28-1)","자치05-38(B1) 20-3차(원효로1가 28-1)","37.5397","126.9669","1","2022-12-01"
"용산구","자치05-39(00) 21-2차(원효로1가 54-7 평화문화사 앞)","자치05-39(00) 21-2차(원효로1가 54-7 평화문화사 앞)","37.5390","126.9681","1","2022-12-01"
"용산구","자치05-40(00) 21-2차(원효로1가 47-21 르팽코 앞)","자치05-40(00) 21-2차(원효로1가 47-21 르팽코 앞)","37.5400","126.9681","1","2022-12-01"
"용산구","자치05-40(A1) 21-2차(원효로1가 46-11 새마을금고 앞)","자치05-40(A1) 21-2차(원효로1가 46-11 새마을금고 앞)","37.5400","126.9686","1","2022-12-01"
"용산구","자치06-02(00) 20-2차(원효로3가 258 원삼탕 맞은 편)","자치06-02(00) 20-2차(원효로3가 258 원삼탕 맞은 편)","37.5336","126.9564","1","2022-12-01"
"용산구","자치06-03(00) 20-2차(원효로4가 93 해물한마당 앞)","자치06-03(00) 20-2차(원효로4가 93 해물한마당 앞)","37.5330","126.9526","1","2022-12-01"
"용산구","자치06-04(00) (신창동 88-2 성심여고 앞)","자치06-04(00) (신창동 88-2 성심여고 앞)","37.5353","126.9533","1","2022-12-01"
"용산구","자치06-05(00) (원효로4가 64 골목길)","자치06-05(00) (원효로4가 64 골목길)","37.5345","126.9532","1","2022-12-01"
"용산구","자치06-06(00) (원효로3가 242-2 계단위 삼거리)","자치06-06(00) (원효로3가 242-2 계단위 삼거리)","37.5334","126.9549","1","2022-12-01"
"용산구","자치06-06(A1) (원효로19가길 5)","자치06-06(A1) (원효로19가길 5)","37.5336","126.9548","1","2022-12-01"
"용산구","자치06-07(00) (원효로3가 96-2 소망빌딩 앞)","자치06-07(00) (원효로3가 96-2 소망빌딩 앞)","37.5343","126.9577","1","2022-12-01"
"용산구","자치06-07(A1) (원효로3가 56-1 버스정류장 뒤)","자치06-07(A1) (원효로3가 56-1 버스정류장 뒤)","37.5340","126.9580","1","2022-12-01"
"용산구","자치06-07(B1) (원효로 131 금성아파트 앞)","자치06-07(B1) (원효로 131 금성아파트 앞)","37.5338","126.9577","1","2022-12-01"
"용산구","자치06-07(C1) (원효로39길 25-5 주택안)","자치06-07(C1) (원효로39길 25-5 주택안)","37.5348","126.9579","1","2022-12-01"
"용산구","자치06-07(D1) (원효로3가 56-1 버스정류장 옆)","자치06-07(D1) (원효로3가 56-1 버스정류장 옆)","37.5339","126.9580","1","2022-12-01"
"용산구","자치06-08(00) (신창동 77-117 신창제일교회 옆 사거리)","자치06-08(00) (신창동 77-117 신창제일교회 옆 사거리)","37.5358","126.9553","1","2022-12-01"
"용산구","자치06-11(00) (산천동 81-1 동주민센터 화단)","자치06-11(00) (산천동 81-1 동주민센터 화단)","37.5344","126.9514","1","2022-12-01"
"용산구","자치06-12(00) (산천동 35-1 세느미용실)","자치06-12(00) (산천동 35-1 세느미용실)","37.5348","126.9527","1","2022-12-01"
"용산구","자치06-13(00) (신창동 31-2 신창공영주차장 골목코너)","자치06-13(00) (신창동 31-2 신창공영주차장 골목코너)","37.5352","126.9555","1","2022-12-01"
"용산구","자치06-13(A1) (효창원로26가길 6)","자치06-13(A1) (효창원로26가길 6)","37.5350","126.9561","1","2022-12-01"
"용산구","자치06-13(B1) (효창원로16길 22)","자치06-13(B1) (효창원로16길 22)","37.5351","126.9547","1","2022-12-01"
"용산구","자치06-14(00) (원효로3가 169 일광빌라 앞)","자치06-14(00) (원효로3가 169 일광빌라 앞)","37.5343","126.9564","1","2022-12-01"
"용산구","자치06-15(00) (원효로3가 250-1 하이트맥주 앞 사무실)","자치06-15(00) (원효로3가 250-1 하이트맥주 앞 사무실)","37.5324","126.9543","1","2022-12-01"
"용산구","자치06-15(A1) (원효로27길 13)","자치06-15(A1) (원효로27길 13)","37.5329","126.9547","1","2022-12-01"
"용산구","자치06-19(00) 20-3차(산천동 6-73 원효초교 뒤쪽 삼거리)","자치06-19(00) 20-3차(산천동 6-73 원효초교 뒤쪽 삼거리)","37.5361","126.9510","1","2022-12-01"
"용산구","자치06-20(00) (원효로3가 1-139 원효어린이집 늘푸른공원)","자치06-20(00) (원효로3가 1-139 원효어린이집 늘푸른공원)","37.5348","126.9569","1","2022-12-01"
"용산구","자치06-21(00) 21-1차(신창동 77-114 세방아파트)","자치06-21(00) 21-1차(신창동 77-114 세방아파트)","37.5366","126.9543","1","2022-12-01"
"용산구","자치06-22(00) 21-1차(원효로3가 252-8)","자치06-22(00) 21-1차(원효로3가 252-8)","37.5333","126.9558","1","2022-12-01"
"용산구","자치06-22(A1) 21-1차(원효로3가 252-8)","자치06-22(A1) 21-1차(원효로3가 252-8)","37.5333","126.9559","1","2022-12-01"
"용산구","자치06-23(00) (신창동 77-39)","자치06-23(00) (신창동 77-39)","37.5369","126.9555","1","2022-12-01"
"용산구","자치06-25(00) (신창동 77-51 전주 옆)","자치06-25(00) (신창동 77-51 전주 옆)","37.5363","126.9553","1","2022-12-01"
"용산구","자치06-26(00) (원효로4가 46 소방호스함 옆)","자치06-26(00) (원효로4가 46 소방호스함 옆)","37.5340","126.9531","1","2022-12-01"
"용산구","자치06-26(A1) (효창원로12길 31)","자치06-26(A1) (효창원로12길 31)","37.5336","126.9528","1","2022-12-01"
"용산구","자치06-27(00) (원효로3가 190 앞 철주)","자치06-27(00) (원효로3가 190 앞 철주)","37.5341","126.9556","1","2022-12-01"
"용산구","자치06-27(A1) (원효로3가 206-1)","자치06-27(A1) (원효로3가 206-1)","37.5342","126.9551","1","2022-12-01"
"용산구","자치06-28(00) (청암동 161 전주 옆)","자치06-28(00) (청암동 161 전주 옆)","37.5352","126.9460","1","2022-12-01"
"용산구","자치06-28(A1) (원효로3길 10)","자치06-28(A1) (원효로3길 10)","37.5351","126.9461","1","2022-12-01"
"용산구","자치06-33(00) 21-2차(원효로3가 277-13 아인하우스 옆)","자치06-33(00) 21-2차(원효로3가 277-13 아인하우스 옆)","37.5326","126.9556","1","2022-12-01"
"용산구","자치06-34(00) 21-2차(원효로4가 3 하우스커피 앞)","자치06-34(00) 21-2차(원효로4가 3 하우스커피 앞)","37.5332","126.9537","1","2022-12-01"
"용산구","자치06-35(00) 21-2차(원효로4가 128-1 한강수아파트 삼거리)","자치06-35(00) 21-2차(원효로4가 128-1 한강수아파트 삼거리)","37.5339","126.9518","1","2022-12-01"
"용산구","자치06-36(00) 21-2차(신창동 41 새순어린이집 앞)","자치06-36(00) 21-2차(신창동 41 새순어린이집 앞)","37.5349","126.9553","1","2022-12-01"
"용산구","자치06-36(A1) 21-2차(신창동 32-4 새순어린이집 계단 위)","자치06-36(A1) 21-2차(신창동 32-4 새순어린이집 계단 위)","37.5347","126.9553","1","2022-12-01"
"용산구","자치07-01(00) (효창동 5-52 명성부동산 앞)","자치07-01(00) (효창동 5-52 명성부동산 앞)","37.5414","126.9622","1","2022-12-01"
"용산구","자치07-02(00) 20-2차(효창동 5-86 재향군인회 옆)","자치07-02(00) 20-2차(효창동 5-86 재향군인회 옆)","37.5409","126.9633","1","2022-12-01"
"용산구","자치07-03(00) (효창동 5-158 효창아트빌 2차 APT 맞은 편)","자치07-03(00) (효창동 5-158 효창아트빌 2차 APT 맞은 편)","37.5422","126.9608","1","2022-12-01"
"용산구","자치07-04(00) 20-2차(효창동 5-218 서울자동차고 입구)","자치07-04(00) 20-2차(효창동 5-218 서울자동차고 입구)","37.5410","126.9582","1","2022-12-01"
"용산구","자치07-05(00) (효창동 89 금양초교 뒤)","자치07-05(00) (효창동 89 금양초교 뒤)","37.5400","126.9610","1","2022-12-01"
"용산구","자치07-06(00) (효창동 5-44 보람빌리지 앞)","자치07-06(00) (효창동 5-44 보람빌리지 앞)","37.5417","126.9639","1","2022-12-01"
"용산구","자치07-22(00) (효창동 5-150 원효사 앞)","자치07-22(00) (효창동 5-150 원효사 앞)","37.5426","126.9589","1","2022-12-01"
"용산구","자치07-23(00) (효창동 126-14 효창감리교회 옆)","자치07-23(00) (효창동 126-14 효창감리교회 옆)","37.5414","126.9605","1","2022-12-01"
"용산구","자치07-23(A1) (효창원로69가길25)","자치07-23(A1) (효창원로69가길25)","37.5412","126.9605","1","2022-12-01"
"용산구","자치07-24(00) (효창동 3-288 효원빌라 맞은편)","자치07-24(00) (효창동 3-288 효원빌라 맞은편)","37.5467","126.9623","1","2022-12-01"
"용산구","자치07-25(00) (효창동 5-109 다모빌딩 앞)","자치07-25(00) (효창동 5-109 다모빌딩 앞)","37.5401","126.9631","1","2022-12-01"
"용산구","자치07-27(00) 20-3차(효창동 5-104 일진빌딩 앞)","자치07-27(00) 20-3차(효창동 5-104 일진빌딩 앞)","37.5401","126.9621","1","2022-12-01"
"용산구","자치07-28(00) (효창동 5-197 서울자동차고등학교 뒤)","자치07-28(00) (효창동 5-197 서울자동차고등학교 뒤)","37.5415","126.9586","1","2022-12-01"
"용산구","자치07-29(00) (청파동3가 132-114 건재상 앞)","자치07-29(00) (청파동3가 132-114 건재상 앞)","37.5425","126.9647","1","2022-12-01"
"용산구","자치07-29(A1) 21-2차(효창동 5-677 청원진빌라 (맞))","자치07-29(A1) 21-2차(효창동 5-677 청원진빌라 (맞))","37.5420","126.9648","1","2022-12-01"
"용산구","자치07-30(00) 21-1차(효창동 5-735 우리가게 앞)","자치07-30(00) 21-1차(효창동 5-735 우리가게 앞)","37.5414","126.9596","1","2022-12-01"
"용산구","자치07-30(A1) (백범로47가길 19)","자치07-30(A1) (백범로47가길 19)","37.5417","126.9589","1","2022-12-01"
"용산구","자치07-30(B1) (백범로47가길 13)","자치07-30(B1) (백범로47가길 13)","37.5417","126.9590","1","2022-12-01"
"용산구","자치07-31(00) (효창동 5-550 주택 앞)","자치07-31(00) (효창동 5-550 주택 앞)","37.5409","126.9589","1","2022-12-01"
"용산구","자치07-32(00) 21-1차(효창동 5-140 효창베네스아파트 입구)","자치07-32(00) 21-1차(효창동 5-140 효창베네스아파트 입구)","37.5428","126.9596","1","2022-12-01"
"용산구","자치07-32(A1) 21-1차(효창동 5-178 한인주택 앞)","자치07-32(A1) 21-1차(효창동 5-178 한인주택 앞)","37.5422","126.9595","1","2022-12-01"
"용산구","자치07-42(00) 21-1차(효창원로76길 24-3(효창동 2-23))","자치07-42(00) 21-1차(효창원로76길 24-3(효창동 2-23))","37.5431","126.9638","1","2022-12-01"
"용산구","자치07-42(A1) 21-1차(효창원로76길 23)","자치07-42(A1) 21-1차(효창원로76길 23)","37.5431","126.9636","1","2022-12-01"
"용산구","자치07-45(00) (효창원로72길 26 (효창동 5-22))","자치07-45(00) (효창원로72길 26 (효창동 5-22))","37.5424","126.9634","1","2022-12-01"
"용산구","자치07-50(00) 20-2차(효창동 5-32 감나무집 앞)","자치07-50(00) 20-2차(효창동 5-32 감나무집 앞)","37.5415","126.9613","1","2022-12-01"
"용산구","자치07-50(A1) 20-2차(효창동 5-32)","자치07-50(A1) 20-2차(효창동 5-32)","37.5414","126.9614","1","2022-12-01"
"용산구","자치07-51(00) 21-2차(효창동 5-89 금양빌리지 앞 담장)","자치07-51(00) 21-2차(효창동 5-89 금양빌리지 앞 담장)","37.5405","126.9639","1","2022-12-01"
"용산구","자치08-01(00) (용문동 1-44 창고 앞)","자치08-01(00) (용문동 1-44 창고 앞)","37.5382","126.9620","1","2022-12-01"
"용산구","자치08-01(A1) (용문동 2-9)","자치08-01(A1) (용문동 2-9)","37.5380","126.9628","1","2022-12-01"
"용산구","자치08-02(00) (용문동 5-68 효창공원역 4번출구 앞)","자치08-02(00) (용문동 5-68 효창공원역 4번출구 앞)","37.5392","126.9611","1","2022-12-01"
"용산구","자치08-02(A1) (용문동 5-72)","자치08-02(A1) (용문동 5-72)","37.5394","126.9607","1","2022-12-01"
"용산구","자치08-03(00) 20-2차(용문동 8-20 해피데이호프집 앞)","자치08-03(00) 20-2차(용문동 8-20 해피데이호프집 앞)","37.5375","126.9604","1","2022-12-01"
"용산구","자치08-04(00) 20-2차(용문동 8-36 신도리코 앞)","자치08-04(00) 20-2차(용문동 8-36 신도리코 앞)","37.5378","126.9611","1","2022-12-01"
"용산구","자치08-05(00) 20-2차(용문동 25-17 삼익당한의원 앞)","자치08-05(00) 20-2차(용문동 25-17 삼익당한의원 앞)","37.5363","126.9602","1","2022-12-01"
"용산구","자치08-05(A1) 20-2차(효창원로42길 17 옆)","자치08-05(A1) 20-2차(효창원로42길 17 옆)","37.5365","126.9601","1","2022-12-01"
"용산구","자치08-22(00) (용문동 38-128 청구빌라 앞)","자치08-22(00) (용문동 38-128 청구빌라 앞)","37.5365","126.9560","1","2022-12-01"
"용산구","자치08-23(00) (용문동 38-100 옥수대빌라 맞은편 위쪽)","자치08-23(00) (용문동 38-100 옥수대빌라 맞은편 위쪽)","37.5378","126.9563","1","2022-12-01"
"용산구","자치08-23(A1) (용문동 38-235)","자치08-23(A1) (용문동 38-235)","37.5373","126.9560","1","2022-12-01"
"용산구","자치08-24(00) (용문동 41-33 새마을금고 앞)","자치08-24(00) (용문동 41-33 새마을금고 앞)","37.5372","126.9595","1","2022-12-01"
"용산구","자치08-24(A1) (용문동 41-33 새마을금고 옆)","자치08-24(A1) (용문동 41-33 새마을금고 옆)","37.5373","126.9596","1","2022-12-01"
"용산구","자치08-25(00) (용문동 2-1 서울비전교회 앞 모퉁이)","자치08-25(00) (용문동 2-1 서울비전교회 앞 모퉁이)","37.5381","126.9635","1","2022-12-01"
"용산구","자치08-25(A1) (용문동 2-1 서울비전교회 앞 모퉁이)","자치08-25(A1) (용문동 2-1 서울비전교회 앞 모퉁이)","37.5380","126.9636","1","2022-12-01"
"용산구","자치08-25(B1) (원효로53가길 27)","자치08-25(B1) (원효로53가길 27)","37.5374","126.9635","1","2022-12-01"
"용산구","자치08-28(00) 20-1차(도원동 3-1 대박부동산 앞)","자치08-28(00) 20-1차(도원동 3-1 대박부동산 앞)","37.5388","126.9586","1","2022-12-01"
"용산구","자치08-29(00) (용문동 41-15 용문시장 내)","자치08-29(00) (용문동 41-15 용문시장 내)","37.5369","126.9595","1","2022-12-01"
"용산구","자치08-29(A1) 20-1차(효창원로 42길 38-36 브라운스톤아파트 101동 앞 )","자치08-29(A1) 20-1차(효창원로 42길 38-36 브라운스톤아파트 101동 앞 )","37.5367","126.9594","1","2022-12-01"
"용산구","자치08-30(00) (용문동 5-6 주택 앞)","자치08-30(00) (용문동 5-6 주택 앞)","37.5384","126.9621","1","2022-12-01"
"용산구","자치08-31(00) (용문동 32-68 골목꺽이는 지점)","자치08-31(00) (용문동 32-68 골목꺽이는 지점)","37.5387","126.9604","1","2022-12-01"
"용산구","자치09-37(00) 21-1차(이촌로29길 8(한강로3가 40-875))","자치09-37(00) 21-1차(이촌로29길 8(한강로3가 40-875))","37.5243","126.9596","1","2022-12-01"
"용산구","자치08-32(00) (효창원로42길 38-14 브라운스톤아파트 정문지나 안쪽 막다른 골목길)","자치08-32(00) (효창원로42길 38-14 브라운스톤아파트 정문지나 안쪽 막다른 골목길)","37.5359","126.9599","1","2022-12-01"
"용산구","자치08-34(00) (새창로 100 (용문동 32-74))","자치08-34(00) (새창로 100 (용문동 32-74))","37.5384","126.9596","1","2022-12-01"
"용산구","자치08-34(A1) (새창로14길 39-6)","자치08-34(A1) (새창로14길 39-6)","37.5379","126.9595","1","2022-12-01"
"용산구","자치08-36(00) 21-2차(용문동 8-205 다세대주택 옆)","자치08-36(00) 21-2차(용문동 8-205 다세대주택 옆)","37.5372","126.9610","1","2022-12-01"
"용산구","자치08-37(00) 21-2차(도원동 8-24 CU편의점 앞)","자치08-37(00) 21-2차(도원동 8-24 CU편의점 앞)","37.5394","126.9581","1","2022-12-01"
"용산구","자치09-01(00) (한강로1가 248 삼각지고가도로 주변)","자치09-01(00) (한강로1가 248 삼각지고가도로 주변)","37.5362","126.9718","1","2022-12-01"
"용산구","자치09-02(00) (한강로2가 2-196 전자상가 지하도 입구)","자치09-02(00) (한강로2가 2-196 전자상가 지하도 입구)","37.5302","126.9675","1","2022-12-01"
"용산구","자치09-03(00) (한강로2가 2-354 e-편한세상 뒷골 목)","자치09-03(00) (한강로2가 2-354 e-편한세상 뒷골 목)","37.5335","126.9699","1","2022-12-01"
"용산구","자치09-04(00) (한강로2가 17-5 전자상가 정류장)","자치09-04(00) (한강로2가 17-5 전자상가 정류장)","37.5320","126.9654","1","2022-12-01"
"용산구","자치09-05(00) (한강로3가 3-32 선인상가 21동 입구)","자치09-05(00) (한강로3가 3-32 선인상가 21동 입구)","37.5326","126.9642","1","2022-12-01"
"용산구","자치09-06(00) 20-2차(한강로2가 47-3 원불교 부근)","자치09-06(00) 20-2차(한강로2가 47-3 원불교 부근)","37.5315","126.9722","1","2022-12-01"
"용산구","자치09-07(00) (한강로2가 157-1 용산우체국 뒤)","자치09-07(00) (한강로2가 157-1 용산우체국 뒤)","37.5299","126.9698","1","2022-12-01"
"용산구","자치09-07(A1) (한강로2가 157-1 용산우체국 옆 전주)","자치09-07(A1) (한강로2가 157-1 용산우체국 옆 전주)","37.5303","126.9699","1","2022-12-01"
"용산구","자치09-08(00) 20-2차(한강대로62길 48 CU편의점 앞)","자치09-08(00) 20-2차(한강대로62길 48 CU편의점 앞)","37.5328","126.9735","1","2022-12-01"
"용산구","자치09-09(00) 21-1차(용산동3가 1-96 삼각지 어린이공원 앞)","자치09-09(00) 21-1차(용산동3가 1-96 삼각지 어린이공원 앞)","37.5346","126.9751","1","2022-12-01"
"용산구","자치09-09(A1) (한강대로62나길 13)","자치09-09(A1) (한강대로62나길 13)","37.5344","126.9745","1","2022-12-01"
"용산구","자치09-10(00) (한강대로62다길 10 국방부 뒤쪽 일반통행길)","자치09-10(00) (한강대로62다길 10 국방부 뒤쪽 일반통행길)","37.5332","126.9740","1","2022-12-01"
"용산구","자치09-11(00) (한강로3가 1-1 전자상가 국민은행 옆)","자치09-11(00) (한강로3가 1-1 전자상가 국민은행 옆)","37.5336","126.9639","1","2022-12-01"
"용산구","자치09-12(00) (한강로3가 16-18 전자상가 우체국 앞)","자치09-12(00) (한강로3가 16-18 전자상가 우체국 앞)","37.5326","126.9575","1","2022-12-01"
"용산구","자치09-13(00) 20-2차(한강로3가 40-46 이촌동 철길부근)","자치09-13(00) 20-2차(한강로3가 40-46 이촌동 철길부근)","37.5250","126.9607","1","2022-12-01"
"용산구","자치09-14(00) (한강로3가 40-128 대동여인숙 앞)","자치09-14(00) (한강로3가 40-128 대동여인숙 앞)","37.5261","126.9634","1","2022-12-01"
"용산구","자치09-14(A1) (한강대로17길 24)","자치09-14(A1) (한강대로17길 24)","37.5265","126.9637","1","2022-12-01"
"용산구","자치09-15(00) (한강로3가 40-946 마사회 뒷길)","자치09-15(00) (한강로3가 40-946 마사회 뒷길)","37.5274","126.9631","1","2022-12-01"
"용산구","자치09-15(A1) (한강대로21길 29-10)","자치09-15(A1) (한강대로21길 29-10)","37.5268","126.9632","1","2022-12-01"
"용산구","자치09-17(00) 20-2차(한강로3가 65-5 한강초등학교 정문 앞)","자치09-17(00) 20-2차(한강로3가 65-5 한강초등학교 정문 앞)","37.5249","126.9651","1","2022-12-01"
"용산구","자치09-18(00) 20-2차(한강로3가 65-431 용산세무서 골목)","자치09-18(00) 20-2차(한강로3가 65-431 용산세무서 골목)","37.5230","126.9680","1","2022-12-01"
"용산구","자치09-19(00) (한강로3가 65-54 쌍용스윗닷홈 옆)","자치09-19(00) (한강로3가 65-54 쌍용스윗닷홈 옆)","37.5232","126.9641","1","2022-12-01"
"용산구","자치09-22(00) (한강로3가 40-356 경로당 골목 입구)","자치09-22(00) (한강로3가 40-356 경로당 골목 입구)","37.5245","126.9619","1","2022-12-01"
"용산구","자치09-22(A1) (한강로3가 40-321)","자치09-22(A1) (한강로3가 40-321)","37.5247","126.9617","1","2022-12-01"
"용산구","자치09-22(B1) (한강대로7길 13)","자치09-22(B1) (한강대로7길 13)","37.5243","126.9622","1","2022-12-01"
"용산구","자치09-23(00) (한강로3가 40-7 서일공업사 앞)","자치09-23(00) (한강로3가 40-7 서일공업사 앞)","37.5256","126.9621","1","2022-12-01"
"용산구","자치09-23(A1) (한강로3가 40-179)","자치09-23(A1) (한강로3가 40-179)","37.5258","126.9619","1","2022-12-01"
"용산구","자치09-30(00) (한강로3가 40-555 골목주차장 옆)","자치09-30(00) (한강로3가 40-555 골목주차장 옆)","37.5238","126.9608","1","2022-12-01"
"용산구","자치09-30(A1) (한강로3가 40-555 골목 안 정자 쉼터)","자치09-30(A1) (한강로3가 40-555 골목 안 정자 쉼터)","37.5238","126.9608","1","2022-12-01"
"용산구","자치09-30(B1) (한강로3가 40-538 아카시아툴 앞)","자치09-30(B1) (한강로3가 40-538 아카시아툴 앞)","37.5234","126.9612","1","2022-12-01"
"용산구","자치09-31(00) (용산동5가 24 파크타워 101동 뒤)","자치09-31(00) (용산동5가 24 파크타워 101동 뒤)","37.5247","126.9710","1","2022-12-01"
"용산구","자치09-32(00) (용산동5가 24-1 파크타워 105동 뒤)","자치09-32(00) (용산동5가 24-1 파크타워 105동 뒤)","37.5235","126.9730","1","2022-12-01"
"용산구","자치09-33(00) 21-1차(한강로3가 65-152 현대트럼프월드 뒤)","자치09-33(00) 21-1차(한강로3가 65-152 현대트럼프월드 뒤)","37.5225","126.9635","1","2022-12-01"
"용산구","자치09-34(00) (한강로1가 305-11 삼각교회 앞)","자치09-34(00) (한강로1가 305-11 삼각교회 앞)","37.5334","126.9715","1","2022-12-01"
"용산구","자치09-36(00) 19-2차(한강로2가 2-131)","자치09-36(00) 19-2차(한강로2가 2-131)","37.5315","126.9685","1","2022-12-01"
"용산구","자치09-37(A1) 21-1차(한강로3가 40-570 쾌걸쭈꾸미 앞)","자치09-37(A1) 21-1차(한강로3가 40-570 쾌걸쭈꾸미 앞)","37.5243","126.9594","1","2022-12-01"
"용산구","자치09-39(00) (한강로2가 2-16 현대하이카 옆)","자치09-39(00) (한강로2가 2-16 현대하이카 옆)","37.5309","126.9682","1","2022-12-01"
"용산구","자치09-42(00) (한강대로44길 16 (한강로2가 112-3))","자치09-42(00) (한강대로44길 16 (한강로2가 112-3))","37.5307","126.9709","1","2022-12-01"
"용산구","자치09-42(A1) (한강대로40길 32)","자치09-42(A1) (한강대로40길 32)","37.5301","126.9710","1","2022-12-01"
"용산구","자치09-45(00) (한강로1가 231-23 옛집국수 코너)","자치09-45(00) (한강로1가 231-23 옛집국수 코너)","37.5339","126.9736","1","2022-12-01"
"용산구","자치09-48(00) (용산동3가 1-41 전주 옆)","자치09-48(00) (용산동3가 1-41 전주 옆)","37.5337","126.9751","1","2022-12-01"
"용산구","자치09-50(00) 20-2차(한강로3가 65-383 용산공고 옆)","자치09-50(00) 20-2차(한강로3가 65-383 용산공고 옆)","37.5239","126.9679","1","2022-12-01"
"용산구","자치09-52(00) 20-3차(한강로1가 194-3 탐구당)","자치09-52(00) 20-3차(한강로1가 194-3 탐구당)","37.5336","126.9743","1","2022-12-01"
"용산구","자치09-55(00) 21-2차(한강로1가 73-1 용산구재활용 센터 입구)","자치09-55(00) 21-2차(한강로1가 73-1 용산구재활용 센터 입구)","37.5373","126.9716","1","2022-12-01"
"용산구","자치09-56(00) 21-2차(한강로1가 13-23 갤러리문 맞은편)","자치09-56(00) 21-2차(한강로1가 13-23 갤러리문 맞은편)","37.5370","126.9745","1","2022-12-01"
"용산구","자치09-57(00) 21-2차(한강로3가 40-198 덴트마스터 옆)","자치09-57(00) 21-2차(한강로3가 40-198 덴트마스터 옆)","37.5265","126.9628","1","2022-12-01"
"용산구","자치09-58(00) 21-2차(한강로2가 152-1 백두드레곤스 앞 담장)","자치09-58(00) 21-2차(한강로2가 152-1 백두드레곤스 앞 담장)","37.5297","126.9705","1","2022-12-01"
"용산구","자치09-59(00) 21-2차(한강로2가 87-8 물고기주택 앞)","자치09-59(00) 21-2차(한강로2가 87-8 물고기주택 앞)","37.5314","126.9715","1","2022-12-01"
"용산구","자치09-60(00) 21-2차(한강로2가 24-5 오네스트 앞)","자치09-60(00) 21-2차(한강로2가 24-5 오네스트 앞)","37.5321","126.9722","1","2022-12-01"
"용산구","자치09-60(A1) 21-2차(한강로2가 24-5 오네스트 앞)","자치09-60(A1) 21-2차(한강로2가 24-5 오네스트 앞)","37.5320","126.9721","1","2022-12-01"
"용산구","자치09-61(00) 21-2차(한강로2가 35-2 고려페인트 앞 담장)","자치09-61(00) 21-2차(한강로2가 35-2 고려페인트 앞 담장)","37.5328","126.9721","1","2022-12-01"
"용산구","자치10-01(00) (이촌동 301-133 동부이촌동녹지대 입구)","자치10-01(00) (이촌동 301-133 동부이촌동녹지대 입구)","37.5217","126.9662","1","2022-12-01"
"용산구","자치10-02(00) (이촌동 302-64 장미맨션 입구)","자치10-02(00) (이촌동 302-64 장미맨션 입구)","37.5202","126.9683","1","2022-12-01"
"용산구","자치10-03(00) 20-2차(이촌동 302-55 동부아파트 1동 담장)","자치10-03(00) 20-2차(이촌동 302-55 동부아파트 1동 담장)","37.5202","126.9692","1","2022-12-01"
"용산구","자치10-04(00) 20-2차(이촌동 302-75 대한의사협회 앞)","자치10-04(00) 20-2차(이촌동 302-75 대한의사협회 앞)","37.5209","126.9661","1","2022-12-01"
"용산구","자치10-05(00) (이촌동 419 사촌1길 진입로)","자치10-05(00) (이촌동 419 사촌1길 진입로)","37.5199","126.9670","1","2022-12-01"
"용산구","자치10-06(00) 20-2차(이촌동 432 LG자이아파트 105동 출구)","자치10-06(00) 20-2차(이촌동 432 LG자이아파트 105동 출구)","37.5196","126.9700","1","2022-12-01"
"용산구","자치10-07(00) 20-2차(이촌동 300-166 한강맨션 15동 옆)","자치10-07(00) 20-2차(이촌동 300-166 한강맨션 15동 옆)","37.5191","126.9718","1","2022-12-01"
"용산구","자치10-08(00) (이촌동 301-234 꿈나무어린이공원 앞)","자치10-08(00) (이촌동 301-234 꿈나무어린이공원 앞)","37.5210","126.9717","1","2022-12-01"
"용산구","자치10-08(A1) 19-1차(이촌동 301-87)","자치10-08(A1) 19-1차(이촌동 301-87)","37.5210","126.9722","1","2022-12-01"
"용산구","자치10-09(00) (이촌동 415 대우아파트 105동 담장)","자치10-09(00) (이촌동 415 대우아파트 105동 담장)","37.5221","126.9699","1","2022-12-01"
"용산구","자치10-10(00) (이촌동 417 대우아파트 109동 앞)","자치10-10(00) (이촌동 417 대우아파트 109동 앞)","37.5221","126.9712","1","2022-12-01"
"용산구","자치10-11(00) 20-2차(이촌동 406 한가람아파트 219동 옆)","자치10-11(00) 20-2차(이촌동 406 한가람아파트 219동 옆)","37.5226","126.9725","1","2022-12-01"
"용산구","자치10-12(00) (용산동2가 32 해방교회 아래쪽)","자치10-12(00) (용산동2가 32 해방교회 아래쪽)","37.5435","126.9853","1","2022-12-01"
"용산구","자치10-14(00) (이촌동 407-1 한가람아파트 214동 입구)","자치10-14(00) (이촌동 407-1 한가람아파트 214동 입구)","37.5211","126.9745","1","2022-12-01"
"용산구","자치10-15(00) (이촌동 301-78 용강중학교 옆)","자치10-15(00) (이촌동 301-78 용강중학교 옆)","37.5216","126.9754","1","2022-12-01"
"용산구","자치10-16(00) (이촌동 300-23 신용산초교 앞)","자치10-16(00) (이촌동 300-23 신용산초교 앞)","37.5196","126.9747","1","2022-12-01"
"용산구","자치10-17(00) 20-2차(이촌동 403 강촌아파트 105동 옆)","자치10-17(00) 20-2차(이촌동 403 강촌아파트 105동 옆)","37.5192","126.9786","1","2022-12-01"
"용산구","자치10-18(00) (이촌동 402 강촌아파트 101동 앞)","자치10-18(00) (이촌동 402 강촌아파트 101동 앞)","37.5190","126.9770","1","2022-12-01"
"용산구","자치10-19(00) (이촌동 412-1 한강천주교 입구)","자치10-19(00) (이촌동 412-1 한강천주교 입구)","37.5203","126.9770","1","2022-12-01"
"용산구","자치10-20(00) 20-2차(이촌동 301-54 한가람유치원)","자치10-20(00) 20-2차(이촌동 301-54 한가람유치원)","37.5190","126.9806","1","2022-12-01"
"용산구","자치10-21(00) 20-2차(이촌동 301-2 왕궁맨션 1동 정문 앞)","자치10-21(00) 20-2차(이촌동 301-2 왕궁맨션 1동 정문 앞)","37.5180","126.9780","1","2022-12-01"
"용산구","자치10-22(00) (이촌동 300-10 신한은행 앞)","자치10-22(00) (이촌동 300-10 신한은행 앞)","37.5182","126.9792","1","2022-12-01"
"용산구","자치10-23(00) 21-차(이촌동 301-163 금강아산병원 앞)","자치10-23(00) 21-차(이촌동 301-163 금강아산병원 앞)","37.5179","126.9814","1","2022-12-01"
"용산구","자치10-24(00) 18차 (이촌동 301-176 동작대교 밑 (반도 앞))","자치10-24(00) 18차 (이촌동 301-176 동작대교 밑 (반도 앞))","37.5178","126.9828","1","2022-12-01"
"용산구","자치10-26(00) (용산동5가 17-69 이촌역 4번출구 뒤)","자치10-26(00) (용산동5가 17-69 이촌역 4번출구 뒤)","37.5223","126.9733","1","2022-12-01"
"용산구","자치10-26(A1) (용산동5가 17-69 이촌역 4번출구 정면)","자치10-26(A1) (용산동5가 17-69 이촌역 4번출구 정면)","37.5219","126.9732","1","2022-12-01"
"용산구","자치10-27(00) (이촌동 301-179 동주민센터 앞)","자치10-27(00) (이촌동 301-179 동주민센터 앞)","37.5215","126.9729","1","2022-12-01"
"용산구","자치10-32(00) 20-3차(이촌동 301-10 파리크라상 앞)","자치10-32(00) 20-3차(이촌동 301-10 파리크라상 앞)","37.5196","126.9748","1","2022-12-01"
"용산구","자치10-32(A1) (이촌동 301-104 이촌동 우체국 앞)","자치10-32(A1) (이촌동 301-104 이촌동 우체국 앞)","37.5201","126.9751","1","2022-12-01"
"용산구","자치10-36(00) (이촌동 300-10 점보아파트 후문 경비초소 옆)","자치10-36(00) (이촌동 300-10 점보아파트 후문 경비초소 옆)","37.5176","126.9791","1","2022-12-01"
"용산구","자치10-37(00) (이촌동 300-10 점보아파트 뒤 주차장 중간)","자치10-37(00) (이촌동 300-10 점보아파트 뒤 주차장 중간)","37.5178","126.9785","1","2022-12-01"
"용산구","자치10-39(00) 21-1차(이촌동 301-61 현대아파트 110동 놀이터 앞)","자치10-39(00) 21-1차(이촌동 301-61 현대아파트 110동 놀이터 앞)","37.5190","126.9795","1","2022-12-01"
"용산구","자치10-40(00) 21-1차(이촌1동 302-28 타워맨션 입구)","자치10-40(00) 21-1차(이촌1동 302-28 타워맨션 입구)","37.5212","126.9651","1","2022-12-01"
"용산구","자치10-42(00) (이촌동 302-87 충신교회 주차장 옆)","자치10-42(00) (이촌동 302-87 충신교회 주차장 옆)","37.5218","126.9635","1","2022-12-01"
"용산구","자치11-01(00) (이촌동 199-1 새남터성당 앞 공영주차장)","자치11-01(00) (이촌동 199-1 새남터성당 앞 공영주차장)","37.5242","126.9566","1","2022-12-01"
"용산구","자치11-01(A1) (이촌로22길 19-23 신아맨션 앞 공영주차장)","자치11-01(A1) (이촌로22길 19-23 신아맨션 앞 공영주차장)","37.5243","126.9567","1","2022-12-01"
"용산구","자치11-02(00) (이촌동 208-1 이촌서부교회 내)","자치11-02(00) (이촌동 208-1 이촌서부교회 내)","37.5280","126.9539","1","2022-12-01"
"용산구","자치11-02(A1) (이촌동 211-7 중산아파트 5동 앞)","자치11-02(A1) (이촌동 211-7 중산아파트 5동 앞)","37.5288","126.9539","1","2022-12-01"
"용산구","자치11-03(00) (한강로3가 16-95 성촌공원 내 화단)","자치11-03(00) (한강로3가 16-95 성촌공원 내 화단)","37.5312","126.9546","1","2022-12-01"
"용산구","자치11-04(00) (이촌동 212-3 이촌소방서 앞)","자치11-04(00) (이촌동 212-3 이촌소방서 앞)","37.5300","126.9531","1","2022-12-01"
"용산구","자치11-04(A1) 21-2차(이촌동 212-28 현대블루핸즈 앞)","자치11-04(A1) 21-2차(이촌동 212-28 현대블루핸즈 앞)","37.5303","126.9537","1","2022-12-01"
"용산구","자치11-05(00) (이촌동 395 대림아파트 103동 입구)","자치11-05(00) (이촌동 395 대림아파트 103동 입구)","37.5258","126.9545","1","2022-12-01"
"용산구","자치11-05(A1) (이촌동 395-1 엠마뉴엘교회 초입)","자치11-05(A1) (이촌동 395-1 엠마뉴엘교회 초입)","37.5263","126.9541","1","2022-12-01"
"용산구","자치11-06(00) (이촌동 400 현대한강 102동 앞)","자치11-06(00) (이촌동 400 현대한강 102동 앞)","37.5232","126.9584","1","2022-12-01"
"용산구","자치11-06(A1) (이촌동 400 현대한강 101동 102동 사이)","자치11-06(A1) (이촌동 400 현대한강 101동 102동 사이)","37.5234","126.9578","1","2022-12-01"
"용산구","자치11-06(B1) (이촌동 400 현대한강 103동 104동 사이)","자치11-06(B1) (이촌동 400 현대한강 103동 104동 사이)","37.5231","126.9594","1","2022-12-01"
"용산구","자치11-07(00) (이촌동 206-1 동원베네스트 담장)","자치11-07(00) (이촌동 206-1 동원베네스트 담장)","37.5270","126.9546","1","2022-12-01"
"용산구","자치11-08(00) (이촌동 203-53 동의자협의회 사무실 앞)","자치11-08(00) (이촌동 203-53 동의자협의회 사무실 앞)","37.5260","126.9549","1","2022-12-01"
"용산구","자치11-08(A1) (이촌로18길 5)","자치11-08(A1) (이촌로18길 5)","37.5263","126.9555","1","2022-12-01"
"용산구","자치11-08(B1) (이촌로18길 21)","자치11-08(B1) (이촌로18길 21)","37.5259","126.9547","1","2022-12-01"
"용산구","자치11-09(00) (이촌동 203-38 서울교회 옆)","자치11-09(00) (이촌동 203-38 서울교회 옆)","37.5260","126.9555","1","2022-12-01"
"용산구","자치11-10(00) (이촌동 203-60 문구점 앞)","자치11-10(00) (이촌동 203-60 문구점 앞)","37.5253","126.9557","1","2022-12-01"
"용산구","자치11-10(A1) (이촌로22길 9)","자치11-10(A1) (이촌로22길 9)","37.5255","126.9561","1","2022-12-01"
"용산구","자치11-10(B1) (이촌동 203-61 이촌푸줏간 앞)","자치11-10(B1) (이촌동 203-61 이촌푸줏간 앞)","37.5252","126.9555","1","2022-12-01"
"용산구","자치11-10(C1) (이촌동 199-10 제일공인중계사 옆)","자치11-10(C1) (이촌동 199-10 제일공인중계사 옆)","37.5256","126.9562","1","2022-12-01"
"용산구","자치11-12(00) (이촌2동 212-13 버스정류장 삼거리)","자치11-12(00) (이촌2동 212-13 버스정류장 삼거리)","37.5298","126.9544","1","2022-12-01"
"용산구","자치11-13(00) (이촌동 199-1 고가다리 아래)","자치11-13(00) (이촌동 199-1 고가다리 아래)","37.5249","126.9574","1","2022-12-01"
"용산구","자치11-13(A1) (이촌동 199-1 새남터성당 옆 고가 밑)","자치11-13(A1) (이촌동 199-1 새남터성당 옆 고가 밑)","37.5250","126.9574","1","2022-12-01"
"용산구","자치11-14(00) (이촌동 1-41 고가 보행신호 앞)","자치11-14(00) (이촌동 1-41 고가 보행신호 앞)","37.5260","126.9564","1","2022-12-01"
"용산구","자치11-15(00) (이촌동 206-27 북한강성원아파트 입구)","자치11-15(00) (이촌동 206-27 북한강성원아파트 입구)","37.5271","126.9540","1","2022-12-01"
"용산구","자치11-15(A1) (이촌로2가길 81 대림아파트 105동 56라인 앞)","자치11-15(A1) (이촌로2가길 81 대림아파트 105동 56라인 앞)","37.5264","126.9541","1","2022-12-01"
"용산구","자치11-16(00) (이촌동 209-22 시범아파트 2동 앞)","자치11-16(00) (이촌동 209-22 시범아파트 2동 앞)","37.5276","126.9545","1","2022-12-01"
"용산구","자치11-16(A1) (이촌로14길 16 시범동 서울익스프레스 옆)","자치11-16(A1) (이촌로14길 16 시범동 서울익스프레스 옆)","37.5276","126.9543","1","2022-12-01"
"용산구","자치11-18(00) (이촌동 400 현대한강 101동 12호 라인 뒤쪽 한강공원 출구","자치11-18(00) (이촌동 400 현대한강 101동 12호 라인 뒤쪽 한강공원 출구","37.5234","126.9568","1","2022-12-01"
"용산구","자치11-18(A1) (이촌동 172-1 현대한강 뒤편 육교가는길)","자치11-18(A1) (이촌동 172-1 현대한강 뒤편 육교가는길)","37.5235","126.9566","1","2022-12-01"
"용산구","자치11-18(B1) (이촌동 400 이촌현대한강 아파트 102동 뒷길)","자치11-18(B1) (이촌동 400 이촌현대한강 아파트 102동 뒷길)","37.5231","126.9574","1","2022-12-01"
"용산구","자치11-19(00) (이촌로22길 13-22)","자치11-19(00) (이촌로22길 13-22)","37.5245","126.9569","1","2022-12-01"
"용산구","자치12-01(00) (이태원동 74-45 한국야쿠르트 앞)","자치12-01(00) (이태원동 74-45 한국야쿠르트 앞)","37.5330","126.9926","1","2022-12-01"
"용산구","자치12-01(A1) (이태원로20가길 8)","자치12-01(A1) (이태원로20가길 8)","37.5336","126.9927","1","2022-12-01"
"용산구","자치12-01(B1) (이태원로20길 24)","자치12-01(B1) (이태원로20길 24)","37.5333","126.9922","1","2022-12-01"
"용산구","자치12-01(C1) 19-1차(녹사평대로26가길 24)","자치12-01(C1) 19-1차(녹사평대로26가길 24)","37.5326","126.9929","1","2022-12-01"
"용산구","자치12-02(00) (이태원동 132-4 킹클럽 맞은 편)","자치12-02(00) (이태원동 132-4 킹클럽 맞은 편)","37.5335","126.9956","1","2022-12-01"
"용산구","자치12-02(A1) (우사단로12길 16)","자치12-02(A1) (우사단로12길 16)","37.5336","126.9964","1","2022-12-01"
"용산구","자치12-03(00) (이태원동 154-7 이태원빌라 옆)","자치12-03(00) (이태원동 154-7 이태원빌라 옆)","37.5371","126.9906","1","2022-12-01"
"용산구","자치12-03(A1) (이태원동 191-1 이태원제일교회 주차장 옆 전주)","자치12-03(A1) (이태원동 191-1 이태원제일교회 주차장 옆 전주)","37.5364","126.9903","1","2022-12-01"
"용산구","자치12-04(00) (이태원동 457-3 Aussie Shop 앞)","자치12-04(00) (이태원동 457-3 Aussie Shop 앞)","37.5345","126.9883","1","2022-12-01"
"용산구","자치12-05(00) (이태원동 63-17 주택 앞)","자치12-05(00) (이태원동 63-17 주택 앞)","37.5333","126.9915","1","2022-12-01"
"용산구","자치12-05(A1) (이태원동 63-1 옆 철전주)","자치12-05(A1) (이태원동 63-1 옆 철전주)","37.5338","126.9911","1","2022-12-01"
"용산구","자치12-06(00) (이태원동 187 럭키하이마트 앞 놀이터)","자치12-06(00) (이태원동 187 럭키하이마트 앞 놀이터)","37.5356","126.9898","1","2022-12-01"
"용산구","자치12-06(A1) (이태원로15길 30)","자치12-06(A1) (이태원로15길 30)","37.5354","126.9902","1","2022-12-01"
"용산구","자치12-07(00) (이태원동 20-78 휘트니스헬스 뒤 주차장 앞)","자치12-07(00) (이태원동 20-78 휘트니스헬스 뒤 주차장 앞)","37.5311","126.9958","1","2022-12-01"
"용산구","자치12-07(A1) (보광로46길 18)","자치12-07(A1) (보광로46길 18)","37.5310","126.9962","1","2022-12-01"
"용산구","자치12-10(00) 19-2차(이태원동 83-1 외인차고 앞)","자치12-10(00) 19-2차(이태원동 83-1 외인차고 앞)","37.5319","126.9921","1","2022-12-01"
"용산구","자치12-10(A1) 19-2차(이태원동 78-10)","자치12-10(A1) 19-2차(이태원동 78-10)","37.5324","126.9920","1","2022-12-01"
"용산구","자치12-11(00) (이태원동 180-21 그린빌라 앞)","자치12-11(00) (이태원동 180-21 그린빌라 앞)","37.5330","126.9937","1","2022-12-01"
"용산구","자치12-11(A1) (이태원동 130-46)","자치12-11(A1) (이태원동 130-46)","37.5330","126.9941","1","2022-12-01"
"용산구","자치12-12(00) (이태원동 96-100 골목길)","자치12-12(00) (이태원동 96-100 골목길)","37.5324","126.9936","1","2022-12-01"
"용산구","자치12-13(00) (이태원동 166-14 골든빌 2차 위쪽)","자치12-13(00) (이태원동 166-14 골든빌 2차 위쪽)","37.5352","126.9910","1","2022-12-01"
"용산구","자치12-14(00) 21-1차(이태원동 116-11 용산교육복지센터 앞)","자치12-14(00) 21-1차(이태원동 116-11 용산교육복지센터 앞)","37.5353","126.9925","1","2022-12-01"
"용산구","자치12-19(00) 20-3차(이태원1동 20-17 대화여관 앞)","자치12-19(00) 20-3차(이태원1동 20-17 대화여관 앞)","37.5315","126.9965","1","2022-12-01"
"용산구","자치12-20(00) (이태원동 15-10 여관 앞 삼거리)","자치12-20(00) (이태원동 15-10 여관 앞 삼거리)","37.5319","126.9970","1","2022-12-01"
"용산구","자치12-20(A1) (우사단로6길 9 여관 옆 전주)","자치12-20(A1) (우사단로6길 9 여관 옆 전주)","37.5320","126.9970","1","2022-12-01"
"용산구","자치12-20(B1) (우사단로10길 30-10)","자치12-20(B1) (우사단로10길 30-10)","37.5328","126.9971","1","2022-12-01"
"용산구","자치12-21(00) (이태원1동 123-1 삼성 어린이집 앞)","자치12-21(00) (이태원1동 123-1 삼성 어린이집 앞)","37.5351","126.9953","1","2022-12-01"
"용산구","자치12-22(00) (이태원1동 120-5 부영주차장 앞)","자치12-22(00) (이태원1동 120-5 부영주차장 앞)","37.5355","126.9917","1","2022-12-01"
"용산구","자치12-23(00) 21-1차(이태원1동 126-9 데뷰 앞)","자치12-23(00) 21-1차(이태원1동 126-9 데뷰 앞)","37.5341","126.9961","1","2022-12-01"
"용산구","자치12-23(A1) 21-1차(한남동 732-107)","자치12-23(A1) 21-1차(한남동 732-107)","37.5343","126.9970","1","2022-12-01"
"용산구","자치12-28(00) 21-1차(이태원동 59-4)","자치12-28(00) 21-1차(이태원동 59-4)","37.5337","126.9906","1","2022-12-01"
"용산구","자치12-30(00) (보광로51길 16 (이태원동 96-108))","자치12-30(00) (보광로51길 16 (이태원동 96-108))","37.5319","126.9942","1","2022-12-01"
"용산구","자치12-31(00) (보광로60길 15 대흥정육식당 옆)","자치12-31(00) (보광로60길 15 대흥정육식당 옆)","37.5340","126.9950","1","2022-12-01"
"용산구","자치12-32(00) (이태원로14길 36 (이태원동 34-111))","자치12-32(00) (이태원로14길 36 (이태원동 34-111))","37.5329","126.9912","1","2022-12-01"
"용산구","자치12-33(00) (이태원동 119-17 세계음식특화거리)","자치12-33(00) (이태원동 119-17 세계음식특화거리)","37.5349","126.9927","1","2022-12-01"
"용산구","자치12-35(00) (이태원동 137-24 통신주옆)","자치12-35(00) (이태원동 137-24 통신주옆)","37.5336","126.9970","1","2022-12-01"
"용산구","자치12-35(A1) (우사단로10길 23 GS25 옆 전주)","자치12-35(A1) (우사단로10길 23 GS25 옆 전주)","37.5332","126.9970","1","2022-12-01"
"용산구","자치12-36(00) 20-2차(이태원1동 100-18 이태원1동 주민센터 뒤)","자치12-36(00) 20-2차(이태원1동 100-18 이태원1동 주민센터 뒤)","37.5325","126.9953","1","2022-12-01"
"용산구","자치12-37(00) 20-3차(이태원동 63-41 장미빌라)","자치12-37(00) 20-3차(이태원동 63-41 장미빌라)","37.5325","126.9914","1","2022-12-01"
"용산구","자치12-38(00) 20-3차(이태원동 22-14 한남파크 부동산 건너편)","자치12-38(00) 20-3차(이태원동 22-14 한남파크 부동산 건너편)","37.5314","126.9943","1","2022-12-01"
"용산구","자치12-38(A1) 20-3차(이태원동 96-58)","자치12-38(A1) 20-3차(이태원동 96-58)","37.5316","126.9943","1","2022-12-01"
"용산구","자치12-39(00) 20-3차(이태원동 34-36 버뮤다)","자치12-39(00) 20-3차(이태원동 34-36 버뮤다)","37.5333","126.9898","1","2022-12-01"
"용산구","자치12-40(00) 20-3차(이태원동 63-68 다세대주택 삼거리)","자치12-40(00) 20-3차(이태원동 63-68 다세대주택 삼거리)","37.5326","126.9917","1","2022-12-01"
"용산구","자치12-41(00) 21-2차(이태원동 96-18 다세대주택 앞)","자치12-41(00) 21-2차(이태원동 96-18 다세대주택 앞)","37.5319","126.9954","1","2022-12-01"
"용산구","자치12-41(A1) 21-2차(이태원동 18-49 다세대주택 앞)","자치12-41(A1) 21-2차(이태원동 18-49 다세대주택 앞)","37.5318","126.9952","1","2022-12-01"
"용산구","자치12-42(00) 21-2차(이태원동 96-117 대호빌라 옆)","자치12-42(00) 21-2차(이태원동 96-117 대호빌라 옆)","37.5322","126.9940","1","2022-12-01"
"용산구","자치12-43(00) 21-2차(이태원동 166-33 이태원 남부경로당)","자치12-43(00) 21-2차(이태원동 166-33 이태원 남부경로당)","37.5348","126.9914","1","2022-12-01"
"용산구","자치13-01(00) 20-2차(이태원동 204-3 이태원빌라 옆)","자치13-01(00) 20-2차(이태원동 204-3 이태원빌라 옆)","37.5379","126.9920","1","2022-12-01"
"용산구","자치13-01(A1) 20-2차(회나무로44가길 65 맞은편)","자치13-01(A1) 20-2차(회나무로44가길 65 맞은편)","37.5381","126.9925","1","2022-12-01"
"용산구","자치13-02(00) (이태원동 223-23 디지텍고교 앞)","자치13-02(00) (이태원동 223-23 디지텍고교 앞)","37.5386","126.9906","1","2022-12-01"
"용산구","자치13-03(00) 20-2차(이태원동 258-486 빌라 뒤)","자치13-03(00) 20-2차(이태원동 258-486 빌라 뒤)","37.5417","126.9931","1","2022-12-01"
"용산구","자치13-03(A1) (이태원동 258-265)","자치13-03(A1) (이태원동 258-265)","37.5422","126.9930","1","2022-12-01"
"용산구","자치13-04(00) (이태원동 260-54 남산체육관 뒤)","자치13-04(00) (이태원동 260-54 남산체육관 뒤)","37.5419","126.9920","1","2022-12-01"
"용산구","자치13-04(A1) (소월로40길 50-2 남산체육관 뒤)","자치13-04(A1) (소월로40길 50-2 남산체육관 뒤)","37.5419","126.9917","1","2022-12-01"
"용산구","자치13-05(00) 20-2차(이태원동 289-3 어린이공원 앞)","자치13-05(00) 20-2차(이태원동 289-3 어린이공원 앞)","37.5380","126.9895","1","2022-12-01"
"용산구","자치13-05(A1) (회나무로26길 52 어린이공원 옆)","자치13-05(A1) (회나무로26길 52 어린이공원 옆)","37.5383","126.9897","1","2022-12-01"
"용산구","자치13-06(00) (이태원동 367-1 세탁소 옆)","자치13-06(00) (이태원동 367-1 세탁소 옆)","37.5367","126.9888","1","2022-12-01"
"용산구","자치13-07(00) (이태원동 405-17 이태원초교 후문)","자치13-07(00) (이태원동 405-17 이태원초교 후문)","37.5358","126.9886","1","2022-12-01"
"용산구","자치13-08(00) (이태원동 258-61 계단 아래)","자치13-08(00) (이태원동 258-61 계단 아래)","37.5422","126.9940","1","2022-12-01"
"용산구","자치13-10(00) (이태원동 247-1 한영슈퍼 사거리)","자치13-10(00) (이태원동 247-1 한영슈퍼 사거리)","37.5409","126.9934","1","2022-12-01"
"용산구","자치13-10(A1) (회나무로39길 34)","자치13-10(A1) (회나무로39길 34)","37.5410","126.9935","1","2022-12-01"
"용산구","자치13-10(B1) 21-2차(이태원동 246-13)","자치13-10(B1) 21-2차(이태원동 246-13)","37.5406","126.9937","1","2022-12-01"
"용산구","자치13-11(00) (이태원동 324-12 경리단 뒤쪽)","자치13-11(00) (이태원동 324-12 경리단 뒤쪽)","37.5375","126.9886","1","2022-12-01"
"용산구","자치13-11(A1) (회나무로6길 20)","자치13-11(A1) (회나무로6길 20)","37.5379","126.9888","1","2022-12-01"
"용산구","자치13-12(00) (이태원동 154-23 이태원삼호빌라)","자치13-12(00) (이태원동 154-23 이태원삼호빌라)","37.5368","126.9907","1","2022-12-01"
"용산구","자치13-13(00) (이태원동 208-18 현진빌라 앞)","자치13-13(00) (이태원동 208-18 현진빌라 앞)","37.5384","126.9939","1","2022-12-01"
"용산구","자치13-16(00) 20-3차(이태원2동 431-2 수영장 뒷편)","자치13-16(00) 20-3차(이태원2동 431-2 수영장 뒷편)","37.5361","126.9877","1","2022-12-01"
"용산구","자치13-17(00) 20-3차(이태원동 565)","자치13-17(00) 20-3차(이태원동 565)","37.5372","126.9877","1","2022-12-01"
"용산구","자치13-17(A1) (녹사평대로46가길 6)","자치13-17(A1) (녹사평대로46가길 6)","37.5371","126.9880","1","2022-12-01"
"용산구","자치13-18(00) 20-3차(이태원2동 450-2 그린마트 앞)","자치13-18(00) 20-3차(이태원2동 450-2 그린마트 앞)","37.5350","126.9882","1","2022-12-01"
"용산구","자치13-19(00) (이태원동 416-1 이태원우체국 뒤 이태원초교 담장)","자치13-19(00) (이태원동 416-1 이태원우체국 뒤 이태원초교 담장)","37.5365","126.9876","1","2022-12-01"
"용산구","자치13-20(00) (이태원동 206-15 영진식품 옆 삼거리)","자치13-20(00) (이태원동 206-15 영진식품 옆 삼거리)","37.5393","126.9931","1","2022-12-01"
"용산구","자치13-23(00) (이태원동 5-25 필리핀대사관 뒤 사거리)","자치13-23(00) (이태원동 5-25 필리핀대사관 뒤 사거리)","37.5401","126.9946","1","2022-12-01"
"용산구","자치13-23(A1) (회나무로42길 22)","자치13-23(A1) (회나무로42길 22)","37.5403","126.9951","1","2022-12-01"
"용산구","자치13-24(00) (이태원2동 225-10 네네치킨 옆)","자치13-24(00) (이태원2동 225-10 네네치킨 옆)","37.5397","126.9905","1","2022-12-01"
